,상호명,상권업종중분류명,표준산업분류명,도로명주소,시군구명,경도,위도,Dbscan_50m,Dbscan_100m
15,투썸플레이스,커피점/카페,비알콜 음료점업,부산광역시 남구 수영로 286,남구,129.097700656702,35.1359634354821,0,0
69,더리터,커피점/카페,비알콜 음료점업,부산광역시 수영구 수영로 396-1,수영구,129.107895985117,35.1417477198455,0,0
97,비움카페,커피점/카페,비알콜 음료점업,부산광역시 기장군 기장읍 용궁길 68,기장군,129.221667734935,35.189328294163,-1,-1
104,로카페,커피점/카페,비알콜 음료점업,부산광역시 기장군 정관읍 정관로 350,기장군,129.164382287206,35.3358238268713,-1,-1
229,콩카페,커피점/카페,비알콜 음료점업,부산광역시 북구 시랑로 137,북구,129.010422973867,35.1954845580884,-1,-1
244,빽다방,커피점/카페,비알콜 음료점업,부산광역시 중구 남포길 25-6,중구,129.031692023169,35.0988828433885,1,1
334,카페황금나무,커피점/카페,비알콜 음료점업,부산광역시 사상구 사상로342번길 8,사상구,128.985061376452,35.1749253673146,-1,-1
405,꼬마대통령,커피점/카페,비알콜 음료점업,부산광역시 사상구 학감대로 117,사상구,128.987618131716,35.1412282799382,-1,-1
407,도타이,커피점/카페,비알콜 음료점업,부산광역시 영도구 와치로 266,영도구,129.069499558016,35.0754432981328,-1,-1
437,카페휴,커피점/카페,비알콜 음료점업,부산광역시 금정구 중앙대로 1777,금정구,129.092481410742,35.242067485786,2,-1
452,카페,커피점/카페,비알콜 음료점업,부산광역시 동구 범일로90번길 17,동구,129.061564350966,35.1382954826631,10,-1
478,수연다방,커피점/카페,비알콜 음료점업,부산광역시 북구 모분재로 27,북구,129.006137432899,35.205038930976,3,-1
682,단디코카,커피점/카페,비알콜 음료점업,부산광역시 사하구 낙동대로536번길 14,사하구,128.965798556805,35.1120904354346,11,-1
786,이디야커피,커피점/카페,비알콜 음료점업,부산광역시 사하구 다대로 682,사하구,128.966690081527,35.0482002400717,-1,-1
1003,토스피아,커피점/카페,비알콜 음료점업,부산광역시 서구 구덕로148번길 37,서구,129.022810538933,35.0982099277951,1,1
1020,오랜지바다,커피점/카페,비알콜 음료점업,부산광역시 수영구 광안해변로 245-1,수영구,129.12076250238,35.1549519048445,0,-1
1035,충원커피숍,커피점/카페,비알콜 음료점업,부산광역시 동래구 반송로 225,동래구,129.098014194306,35.2009415690308,7,-1
1042,이삭토스트,커피점/카페,비알콜 음료점업,부산광역시 금정구 부산대학로 63,금정구,129.084417869164,35.231413603351,2,2
1073,수명,커피점/카페,비알콜 음료점업,부산광역시 연제구 좌수영로 308-1,연제구,129.108052854779,35.1881135952574,7,-1
1103,용커피숍,커피점/카페,비알콜 음료점업,부산광역시 북구 낙동대로1780번길 32,북구,129.004798445273,35.208673638982,3,-1
1156,엔케이이뮨베이커리카페,커피점/카페,비알콜 음료점업,부산광역시 강서구 명지국제6로 254,강서구,128.923373599054,35.0980615113631,13,-1
1157,길커피,커피점/카페,비알콜 음료점업,부산광역시 해운대구 해운대로61번길 80-42,해운대구,129.127180324459,35.1945171570693,-1,-1
1208,커피앤유,커피점/카페,비알콜 음료점업,부산광역시 기장군 기장읍 기장해안로 599,기장군,129.229945158048,35.2249206126937,-1,-1
1259,아슬란,커피점/카페,비알콜 음료점업,부산광역시 해운대구 양운로 110,해운대구,129.173929364242,35.1726833193054,4,-1
1310,엔제리너스,커피점/카페,비알콜 음료점업,부산광역시 동래구 온천천로 361,동래구,129.093043934966,35.1938926518931,7,-1
1358,모네의정원,커피점/카페,비알콜 음료점업,부산광역시 부산진구 새싹로 159,부산진구,129.049873561242,35.170423846955,-1,-1
1499,닥밭골북카페,커피점/카페,비알콜 음료점업,부산광역시 서구 보동길 294-24,서구,129.023786960144,35.1140213126693,-1,-1
1549,컴파스커피,커피점/카페,비알콜 음료점업,부산광역시 사하구 낙동대로516번길 48,사하구,128.966192251859,35.1129165932307,11,-1
1553,아이브,커피점/카페,비알콜 음료점업,부산광역시 사상구 백양대로 987,사상구,128.992847757842,35.1941155868364,-1,-1
1576,엔제리너스가덕휴게소점,커피점/카페,비알콜 음료점업,부산광역시 강서구 거가대로 2571,강서구,128.809618031719,35.0230282973339,-1,-1
1650,아이엠PC카페,커피점/카페,비알콜 음료점업,부산광역시 부산진구 가야공원로 28,부산진구,129.029825208116,35.1509996268079,-1,-1
1690,더셰프,커피점/카페,비알콜 음료점업,부산광역시 수영구 수영로427번길 11,수영구,129.108708870166,35.1442371335733,0,-1
1722,케익타운,커피점/카페,비알콜 음료점업,부산광역시 동구 고관로29번길 30,동구,129.041086624278,35.1226445899469,1,-1
1797,엔제리너스,커피점/카페,비알콜 음료점업,부산광역시 남구 수영로 46-1,남구,129.072388287842,35.136117961027,-1,-1
1798,우인,커피점/카페,비알콜 음료점업,부산광역시 사하구 감내2로 172,사하구,129.009787152953,35.0987337398413,-1,-1
1806,원일커피숍,커피점/카페,비알콜 음료점업,부산광역시 서구 대청로 4,서구,129.020283256535,35.1031168329013,1,-1
2002,오늘도커피볶는집,커피점/카페,비알콜 음료점업,부산광역시 남구 용소로46번길 14,남구,129.100170393698,35.1335793937176,0,0
2052,북마니아,커피점/카페,비알콜 음료점업,부산광역시 강서구 가락대로 929,강서구,128.881943175006,35.1546541728245,-1,-1
2055,영커피숍,커피점/카페,비알콜 음료점업,부산광역시 사상구 괘감로 93,사상구,128.98478610938,35.157557663992,14,-1
2079,이디아커피,커피점/카페,비알콜 음료점업,부산광역시 동구 중앙대로332번길 4,동구,129.046114238087,35.1254407067016,1,-1
2427,향우,커피점/카페,비알콜 음료점업,부산광역시 금정구 중앙대로 2115,금정구,129.092438627749,35.273273455846,-1,-1
2490,조이커피전문점,커피점/카페,비알콜 음료점업,부산광역시 남구 우암로 66-1,남구,129.081400491903,35.1164595851318,-1,-1
2767,스타벅스,커피점/카페,비알콜 음료점업,부산광역시 동구 중앙대로 216,동구,129.040830967932,35.1163460024434,1,-1
2817,엘리온카페,커피점/카페,비알콜 음료점업,부산광역시 기장군 정관읍 모전3길 35,기장군,129.169663666301,35.3366922231239,-1,-1
2915,시나본,커피점/카페,비알콜 음료점업,부산광역시 해운대구 센텀남대로 35,해운대구,129.129106584707,35.1686565992762,5,4
2965,커피베이,커피점/카페,비알콜 음료점업,부산광역시 북구 덕천로276번길 60,북구,129.033361051868,35.2058011843368,-1,-1
3060,뉘앙스사주카페,커피점/카페,비알콜 음료점업,부산광역시 금정구 부산대학로63번길 21,금정구,129.084133067314,35.2306499822692,2,2
3144,카페301,커피점/카페,비알콜 음료점업,부산광역시 남구 용소로 12,남구,129.100490936678,35.136199532287,0,0
3206,caffe그루,커피점/카페,비알콜 음료점업,부산광역시 서구 꽃마을로 21,서구,129.012975161777,35.1161673422363,18,-1
3225,만랩커피,커피점/카페,비알콜 음료점업,부산광역시 기장군 기장읍 차성동로 71,기장군,129.216478601306,35.2440935135687,6,-1
3241,엔제리너스부산청사포점,커피점/카페,비알콜 음료점업,부산광역시 해운대구 청사포로128번길 40,해운대구,129.190587787016,35.1602439680815,-1,-1
3272,모모스커피,커피점/카페,비알콜 음료점업,부산광역시 금정구 오시게로 18-1,금정구,129.086375553135,35.2192184081674,2,-1
3329,투썸플레이스,커피점/카페,비알콜 음료점업,부산광역시 해운대구 센텀중앙로 97,해운대구,129.124597327857,35.1752065355079,5,4
3348,커피트리니티,커피점/카페,비알콜 음료점업,부산광역시 수영구 수영로 405,수영구,129.108081923857,35.1425122008147,0,0
3393,프레임,커피점/카페,비알콜 음료점업,부산광역시 수영구 민락수변로 243,수영구,129.128286262244,35.1641032399787,5,4
3525,공항더치커피,커피점/카페,비알콜 음료점업,부산광역시 강서구 공항로811번가길 30,강서구,128.956814953497,35.1787213224638,-1,-1
3642,달콤,커피점/카페,비알콜 음료점업,부산광역시 해운대구 선수촌로 175,해운대구,129.123441857274,35.2085052504344,-1,-1
3724,카페에비아케,커피점/카페,비알콜 음료점업,부산광역시 해운대구 센텀1로 17,해운대구,129.131619014596,35.1669746092658,5,4
3754,로타리다방,커피점/카페,비알콜 음료점업,부산광역시 서구 자갈치로 1,서구,129.024817839032,35.096471295315,1,1
3844,핸드케이크,커피점/카페,비알콜 음료점업,부산광역시 동래구 온천천로431번길 24-3,동래구,129.100005096456,35.1930364026952,7,-1
3875,가배도피오,커피점/카페,비알콜 음료점업,부산광역시 서구 구덕로185번길 34-27,서구,129.017909020639,35.1018297541759,1,-1
3876,라떼떼,커피점/카페,비알콜 음료점업,부산광역시 동래구 명안로85번길 52,동래구,129.101822995782,35.2048730494551,-1,-1
3877,컴포즈커피,커피점/카페,비알콜 음료점업,부산광역시 기장군 기장읍 기장해안로 98,기장군,129.212365966598,35.1877271942749,-1,-1
3943,탐앤탐스,커피점/카페,비알콜 음료점업,부산광역시 금정구 산성로 872,금정구,129.067595840931,35.2353849955517,-1,-1
4021,카페연,커피점/카페,비알콜 음료점업,부산광역시 연제구 연제로 2,연제구,129.079765229861,35.1762274281482,8,-1
4158,경성팥집옥루몽,커피점/카페,비알콜 음료점업,부산광역시 기장군 정관읍 방곡2로 11,기장군,129.189198179929,35.3261000098869,-1,-1
4181,뜰에,커피점/카페,비알콜 음료점업,부산광역시 남구 용호로 96,남구,129.112315728015,35.1238056153439,-1,-1
4193,커피앤스톤,커피점/카페,비알콜 음료점업,부산광역시 해운대구 반송로757번길 4-1,해운대구,129.143861363064,35.2220239768314,-1,-1
4218,대평동마을회대평마을다방,커피점/카페,비알콜 음료점업,부산광역시 영도구 대평로27번길 6,영도구,129.034021458797,35.0913993757376,1,-1
4257,노스커피,커피점/카페,비알콜 음료점업,부산광역시 금정구 수림로85번길 53,금정구,129.083214167623,35.2375537567668,2,2
4323,동구네PC카페,커피점/카페,비알콜 음료점업,부산광역시 강서구 과학산단로334번길 7,강서구,128.832698138718,35.1495220292204,-1,-1
4331,커피구루마,커피점/카페,비알콜 음료점업,부산광역시 수영구 무학로9번길 90,수영구,129.115850822251,35.1657868330198,0,-1
4409,빈스에스프레소,커피점/카페,비알콜 음료점업,부산광역시 금정구 금정로 59-7,금정구,129.085815761575,35.2299678789269,2,2
4415,"공간,성",커피점/카페,비알콜 음료점업,부산광역시 수영구 광안해변로307번길 36,수영구,129.126377981417,35.1586495920401,0,-1
4420,가베향,커피점/카페,비알콜 음료점업,부산광역시 남구 고동골로78번길 23,남구,129.073166263155,35.144394879356,-1,-1
4445,CAFFEMISO,커피점/카페,비알콜 음료점업,부산광역시 수영구 수영로 493,수영구,129.110622351816,35.1501868026636,0,-1
4470,위드커피,커피점/카페,비알콜 음료점업,부산광역시 동구 중앙대로195번가길 47-4,동구,129.037629022351,35.1173199242097,1,-1
4498,커피2층,커피점/카페,비알콜 음료점업,부산광역시 중구 광복중앙로 3,중구,129.031151741907,35.0995274360766,1,1
4559,가온사무편의점,커피점/카페,비알콜 음료점업,부산광역시 영도구 절영로 149,영도구,129.041460712254,35.0830608168226,1,-1
4561,빈스빈스,커피점/카페,비알콜 음료점업,부산광역시 해운대구 달맞이길117번가길 120-45,해운대구,129.182116105993,35.1580915087749,-1,-1
4594,블랙코끼리,커피점/카페,비알콜 음료점업,부산광역시 연제구 법원북로 59,연제구,129.073750709933,35.1938759662478,-1,-1
4736,커피&현,커피점/카페,비알콜 음료점업,부산광역시 동래구 충렬대로459번길 69,동래구,129.110302411145,35.1977017243736,-1,-1
4818,카페제니아,커피점/카페,비알콜 음료점업,부산광역시 기장군 기장읍 차성서로 148,기장군,129.21120592374,35.2463907943829,6,-1
4819,아트인오리,커피점/카페,비알콜 음료점업,부산광역시 기장군 장안읍 대룡3길 12,기장군,129.266031731072,35.3697650472202,-1,-1
4821,Dichten,커피점/카페,비알콜 음료점업,부산광역시 연제구 연수로 109-1,연제구,129.08294793608,35.1753246685467,-1,-1
4834,북카페,커피점/카페,비알콜 음료점업,부산광역시 해운대구 반여로 132,해운대구,129.126331875623,35.2022588880225,-1,-1
4870,풀하우스,커피점/카페,비알콜 음료점업,부산광역시 기장군 일광면 일광로 582-32,기장군,129.259960034337,35.2933943969133,-1,-1
4880,카페,커피점/카페,비알콜 음료점업,부산광역시 동래구 온천천로 165,동래구,129.078981234117,35.2049525572563,2,-1
4895,시스템,커피점/카페,비알콜 음료점업,부산광역시 금정구 금강로 750,금정구,129.089310443978,35.2744193643655,-1,-1
4948,할리스커피,커피점/카페,비알콜 음료점업,부산광역시 동래구 명륜로 34,동래구,129.083533800244,35.1971329629702,2,-1
5034,카페두다트,커피점/카페,비알콜 음료점업,부산광역시 연제구 법원남로16번길 24,연제구,129.075290358339,35.1915547577092,-1,-1
5100,남도커피숍,커피점/카페,비알콜 음료점업,부산광역시 중구 자갈치로 22-1,중구,129.026868795952,35.0964719706395,1,1
5110,칼리버,커피점/카페,비알콜 음료점업,부산광역시 남구 진남로 4,남구,129.092041775034,35.1353745734089,0,0
5116,장안상회,커피점/카페,비알콜 음료점업,부산광역시 기장군 장안읍 장안로 370,기장군,129.24402121792,35.370345180724,-1,-1
5362,광안리게스후점,커피점/카페,비알콜 음료점업,부산광역시 수영구 광안해변로 183,수영구,129.116075599615,35.1509028730462,0,-1
5414,채스갤러리카페,커피점/카페,비알콜 음료점업,부산광역시 해운대구 달맞이길117번가길 120-33,해운대구,129.181682769782,35.1577261707218,-1,-1
5470,초코카페,커피점/카페,비알콜 음료점업,부산광역시 수영구 감포로102번길 29,수영구,129.119306652115,35.1680534824102,0,-1
5492,스타벅스,커피점/카페,비알콜 음료점업,부산광역시 연제구 반송로 20,연제구,129.083343934019,35.1869670403599,8,-1
5497,카페아자르,커피점/카페,비알콜 음료점업,부산광역시 동래구 사직북로 4,동래구,129.061384849855,35.1962835154483,9,-1
5507,슈거문,커피점/카페,비알콜 음료점업,부산광역시 해운대구 센텀1로 17,해운대구,129.131619014596,35.1669746092658,5,4
5520,카페콘텐토,커피점/카페,비알콜 음료점업,부산광역시 강서구 공항앞길187번길 13,강서구,128.951294585389,35.1741766802915,-1,-1
5521,카페토끼풀,커피점/카페,비알콜 음료점업,부산광역시 남구 진남로46번길 36,남구,129.0904202272,35.13967078697,0,-1
5617,커피마실,커피점/카페,비알콜 음료점업,부산광역시 연제구 고분로 24,연제구,129.084906736798,35.1855919584999,8,-1
5627,프리미엄학습관,커피점/카페,비알콜 음료점업,부산광역시 남구 분포로 115,남구,129.112748233323,35.1322116244133,-1,-1
5657,부원빌딩엔제리너스,커피점/카페,비알콜 음료점업,부산광역시 수영구 민락수변로 147,수영구,129.134496858083,35.1568341635415,-1,-1
5707,다빈치커피숍,커피점/카페,비알콜 음료점업,부산광역시 해운대구 삼어로 131,해운대구,129.119468993141,35.2079110836449,-1,-1
5794,카페온나,커피점/카페,비알콜 음료점업,부산광역시 남구 동명로146번길 64,남구,129.111791279662,35.1166984417489,-1,-1
5843,카페베네해운대청사포점,커피점/카페,비알콜 음료점업,부산광역시 해운대구 청사포로 137-1,해운대구,129.193650259488,35.1610070446204,-1,-1
5855,비전위드카페,커피점/카페,비알콜 음료점업,부산광역시 기장군 정관읍 정관로 583,기장군,129.177787522994,35.321182142724,16,-1
5857,모아커피,커피점/카페,비알콜 음료점업,부산광역시 영도구 절영로14번길 17,영도구,129.039210000249,35.0932209238358,1,-1
5902,엔제리너스,커피점/카페,비알콜 음료점업,부산광역시 동구 중앙대로196번길 10,동구,129.040366310685,35.1143128268207,1,-1
5903,가야한방쑥밀면,커피점/카페,비알콜 음료점업,부산광역시 부산진구 전포대로256번길 7,부산진구,129.065966803142,35.1595026667013,10,3
5965,플러스북카페,커피점/카페,비알콜 음료점업,부산광역시 영도구 절영로13번길 61,영도구,129.043438910628,35.0920127810085,1,-1
6023,레가토,커피점/카페,비알콜 음료점업,부산광역시 연제구 거제천로 31,연제구,129.071449293426,35.1774911072914,8,-1
6024,다미아,커피점/카페,비알콜 음료점업,부산광역시 연제구 교대로 18-1,연제구,129.077803828629,35.1956337167265,-1,-1
6062,커피언니,커피점/카페,비알콜 음료점업,부산광역시 금정구 금사로67번길 11,금정구,129.110112578645,35.219255455106,-1,-1
6080,에스파지오,커피점/카페,비알콜 음료점업,부산광역시 해운대구 센텀동로 6,해운대구,129.133715633542,35.1709301043966,5,4
6081,카페마운틴,커피점/카페,비알콜 음료점업,부산광역시 금정구 부산대학로63번길 2,금정구,129.083846844508,35.2322570003316,2,2
6141,스윗마망,커피점/카페,비알콜 음료점업,부산광역시 동래구 반송로 242,동래구,129.099171804241,35.2020938490184,7,-1
6145,이디야커피,커피점/카페,비알콜 음료점업,부산광역시 사하구 장림번영로 84,사하구,128.974461288551,35.0804627720082,-1,-1
6156,더리터,커피점/카페,비알콜 음료점업,부산광역시 사상구 사상로 88,사상구,128.992121961013,35.1551722048892,-1,-1
6163,스타벅스,커피점/카페,비알콜 음료점업,부산광역시 연제구 중앙대로 1091,연제구,129.080677490817,35.185431465132,8,-1
6167,가배두림,커피점/카페,비알콜 음료점업,부산광역시 사상구 모라로 116,사상구,128.992297427398,35.1858813566967,-1,-1
6200,예스캔커피,커피점/카페,비알콜 음료점업,부산광역시 기장군 정관읍 정관로 561,기장군,129.175391360592,35.3220347086291,16,-1
6209,원커피숍,커피점/카페,비알콜 음료점업,부산광역시 사상구 삼락천로 331-1,사상구,128.987761942351,35.1957886988159,-1,-1
6256,더락PC카페,커피점/카페,비알콜 음료점업,부산광역시 해운대구 재반로 213,해운대구,129.130685227794,35.1962511861239,-1,-1
6258,블랙업커피,커피점/카페,비알콜 음료점업,부산광역시 강서구 낙동북로43번길 38-28,강서구,128.937162480456,35.2188339278415,-1,-1
6337,소울메이트,커피점/카페,비알콜 음료점업,부산광역시 금정구 금강로380번길 25,금정구,129.08730813617,35.2430154504424,2,-1
6342,줄라이커피,커피점/카페,비알콜 음료점업,부산광역시 강서구 명지새동네길2번길 83,강서구,128.931788340201,35.1079036542187,-1,-1
6365,커피인,커피점/카페,비알콜 음료점업,부산광역시 남구 수영로267번길 20,남구,129.095688055943,35.1364413587864,0,0
6368,레이지모먼트커피스탠드,커피점/카페,비알콜 음료점업,부산광역시 동래구 온천천로285번길 19,동래구,129.085761082036,35.1961665598339,2,-1
6373,온무드,커피점/카페,비알콜 음료점업,부산광역시 강서구 대저중앙로 3,강서구,128.949436274126,35.2145017428,-1,-1
6374,지투비커피컴퍼니,커피점/카페,비알콜 음료점업,부산광역시 연제구 고분로123번길 43,연제구,129.097718705048,35.1863238128716,7,-1
6378,리플리,커피점/카페,비알콜 음료점업,부산광역시 기장군 기장읍 차성동로87번길 8,기장군,129.216361092311,35.2457892572643,6,-1
6379,행복한아침,커피점/카페,비알콜 음료점업,부산광역시 영도구 대평로 46,영도구,129.033170282443,35.0926054991098,1,-1
6429,카페,커피점/카페,비알콜 음료점업,부산광역시 부산진구 동평로420번길 20-1,부산진구,129.069660231936,35.172495198761,8,-1
6473,카푸치노커피점,커피점/카페,비알콜 음료점업,부산광역시 남구 용소로28번길 3,남구,129.100505537031,35.1348382988427,0,0
6495,엔제리너스,커피점/카페,비알콜 음료점업,부산광역시 강서구 공항진입로 108,강서구,128.945755851608,35.17273274068,-1,-1
6511,그라시아스,커피점/카페,비알콜 음료점업,부산광역시 중구 중구로47번길 31-1,중구,129.026183487223,35.102174645654,1,1
6512,쓰담쓰담커피숍,커피점/카페,비알콜 음료점업,부산광역시 기장군 기장읍 차성로288번길 65,기장군,129.217288378118,35.2431389397674,6,-1
6515,오직그대만,커피점/카페,비알콜 음료점업,부산광역시 금정구 금강로 275,금정구,129.085380774069,35.2327750687667,2,2
6546,종점다방,커피점/카페,비알콜 음료점업,부산광역시 사상구 사상로531번길 5,사상구,128.989006451817,35.1915600186697,-1,-1
6550,미스터커피,커피점/카페,비알콜 음료점업,부산광역시 연제구 진연로 30-15,연제구,129.072867709803,35.1801646875263,8,-1
6666,컴포,커피점/카페,비알콜 음료점업,부산광역시 동래구 연안로 51,동래구,129.107421378166,35.1925541739714,7,-1
6667,카페,커피점/카페,비알콜 음료점업,부산광역시 해운대구 재송1로45번길 14,해운대구,129.123482155317,35.188304954368,-1,-1
6827,달콤,커피점/카페,비알콜 음료점업,부산광역시 사하구 제석로 34-1,사하구,128.972882356424,35.1044799955455,11,-1
6847,루반에스프레소커피,커피점/카페,비알콜 음료점업,부산광역시 남구 수영로 52,남구,129.073130573634,35.1358229440691,-1,-1
6868,돌라커피,커피점/카페,비알콜 음료점업,부산광역시 해운대구 송정중앙로6번길 143,해운대구,129.197860920294,35.1779383928073,-1,-1
6889,블루포트부산,커피점/카페,비알콜 음료점업,부산광역시 남구 못골번영로71번길 74,남구,129.083941997333,35.1418561930212,-1,-1
6905,축복커피점,커피점/카페,비알콜 음료점업,부산광역시 동래구 안연로109번길 25,동래구,129.096638414744,35.1966274004454,7,-1
6986,자스민,커피점/카페,비알콜 음료점업,부산광역시 남구 수영로322번길 49,남구,129.102560545823,35.1358832612174,0,0
6991,어랏커피온천천나누리모두리,커피점/카페,비알콜 음료점업,부산광역시 동래구 온천천로431번길 28,동래구,129.100248217928,35.1931513738498,7,-1
7027,송원,커피점/카페,비알콜 음료점업,부산광역시 중구 충장대로5번길 5,중구,129.036846888594,35.105806710504,1,1
7092,바빈스커피,커피점/카페,비알콜 음료점업,부산광역시 강서구 과학산단2로20번길 34,강서구,128.83439874466,35.1505469557955,-1,-1
7108,커피베이,커피점/카페,비알콜 음료점업,부산광역시 부산진구 가야공원로 61,부산진구,129.030258227361,35.1479131703674,-1,-1
7270,꼬망2,커피점/카페,비알콜 음료점업,부산광역시 사상구 주례로 72,사상구,129.008722026445,35.1466881896191,-1,-1
7279,스타벅스,커피점/카페,비알콜 음료점업,부산광역시 사하구 낙동대로 455,사하구,128.968878084642,35.1053503724735,11,-1
7281,할리스커피,커피점/카페,비알콜 음료점업,부산광역시 동래구 동래로 77,동래구,129.081501159904,35.2086437732479,2,-1
7325,팔공티,커피점/카페,비알콜 음료점업,부산광역시 해운대구 좌동순환로 511,해운대구,129.167401483699,35.1660401471884,12,-1
7329,지커피,커피점/카페,비알콜 음료점업,부산광역시 강서구 맥도길265번길 20,강서구,128.941853148806,35.1351115131989,-1,-1
7408,커피스위트,커피점/카페,비알콜 음료점업,부산광역시 연제구 과정로 307,연제구,129.093776087241,35.1887120974763,7,-1
7461,원양커피,커피점/카페,비알콜 음료점업,부산광역시 서구 원양로 105,서구,129.012503506976,35.0629342051739,-1,-1
7584,커피나뜨래,커피점/카페,비알콜 음료점업,부산광역시 부산진구 당감로17번길 83,부산진구,129.035451980553,35.1619937575752,-1,-1
7587,구십구다시일,커피점/카페,비알콜 음료점업,부산광역시 수영구 광안로 39-1,수영구,129.11665440046,35.1555126418769,0,-1
7588,엔에이202,커피점/카페,비알콜 음료점업,부산광역시 기장군 정관읍 용수1길 26-1,기장군,129.173707470287,35.329559363589,-1,-1
7589,라포레,커피점/카페,비알콜 음료점업,부산광역시 동래구 명장로 75,동래구,129.108973003521,35.2041137114677,-1,-1
7593,메가커피,커피점/카페,비알콜 음료점업,부산광역시 해운대구 구남로 45,해운대구,129.161995519618,35.1602601897835,12,5
7695,목화다방,커피점/카페,비알콜 음료점업,부산광역시 북구 구포만세길 79,북구,128.996787229217,35.2055849882097,-1,-1
7697,princess,커피점/카페,비알콜 음료점업,부산광역시 사하구 하신중앙로 265,사하구,128.958514989264,35.099943163647,-1,-1
7721,CICI,커피점/카페,비알콜 음료점업,부산광역시 금정구 금정로 64,금정구,129.086556629525,35.2303307962053,2,2
7741,경복커피숖,커피점/카페,비알콜 음료점업,부산광역시 중구 자갈치로47번길 1,중구,129.029380139152,35.0973250372409,1,1
7767,하가빈커피숲,커피점/카페,비알콜 음료점업,부산광역시 기장군 기장읍 무양로 32,기장군,129.225224495062,35.2265639020593,-1,-1
7824,웅짱,커피점/카페,비알콜 음료점업,부산광역시 부산진구 당감로 118,부산진구,129.036974670852,35.1729957560891,-1,-1
7899,가배두림,커피점/카페,비알콜 음료점업,부산광역시 해운대구 해운대로 802,해운대구,129.176689134256,35.1691772216307,4,-1
7999,소문난팥빙수,커피점/카페,비알콜 음료점업,부산광역시 남구 수영로 205-10,남구,129.08897096562,35.1354923456869,0,-1
8147,웨슬리,커피점/카페,비알콜 음료점업,부산광역시 서구 구덕로 236,서구,129.020303288361,35.105604538729,1,-1
8234,들새울,커피점/카페,비알콜 음료점업,부산광역시 기장군 장안읍 장안로 298,기장군,129.248391726776,35.3654599001405,-1,-1
8254,스파지오커피,커피점/카페,비알콜 음료점업,부산광역시 연제구 진연로 32,연제구,129.072467545927,35.179789648654,8,-1
8290,오렌지다실,커피점/카페,비알콜 음료점업,부산광역시 수영구 민락본동로19번길 68,수영구,129.125311400829,35.1577130490267,0,-1
8294,모노,커피점/카페,비알콜 음료점업,부산광역시 금정구 체육공원로 562,금정구,129.111098116738,35.2906982476497,-1,-1
8433,캐릭터디자이너협회카페,커피점/카페,비알콜 음료점업,부산광역시 중구 영주로 93,중구,129.032285803493,35.1146613429945,1,-1
8457,T&C커피전문점,커피점/카페,비알콜 음료점업,부산광역시 수영구 황령대로489번길 7,수영구,129.107645999751,35.1386852795791,0,0
8555,스타벅스서면NC점,커피점/카페,비알콜 음료점업,부산광역시 부산진구 동천로 92,부산진구,129.063037211547,35.157049580457,10,3
8649,체스,커피점/카페,비알콜 음료점업,부산광역시 금정구 금강로 247-12,금정구,129.084196694801,35.2304781503195,2,2
8678,차생원부산점,커피점/카페,비알콜 음료점업,부산광역시 중구 해관로 38,중구,129.035890500368,35.1021732209407,1,1
8688,플루800,커피점/카페,비알콜 음료점업,부산광역시 중구 자갈치로 55-2,중구,129.030425479385,35.0975955928894,1,1
8776,프린세스커피,커피점/카페,비알콜 음료점업,부산광역시 사하구 하신중앙로 265,사하구,128.958514989264,35.099943163647,-1,-1
8815,이디야커피,커피점/카페,비알콜 음료점업,부산광역시 남구 황령대로319번가길 158-7,남구,129.088736797378,35.1516924519432,-1,-1
8835,인얼스커피,커피점/카페,비알콜 음료점업,부산광역시 해운대구 대천로 225,해운대구,129.180719870936,35.1678039603883,4,-1
8906,북카페`행복`,커피점/카페,비알콜 음료점업,부산광역시 해운대구 센텀중앙로 170,해운대구,129.121213383074,35.1822055966408,-1,-1
8929,경커피솝,커피점/카페,비알콜 음료점업,부산광역시 동래구 명안로85번길 39,동래구,129.102387417686,35.2043811661881,-1,-1
8952,하와이커피,커피점/카페,비알콜 음료점업,부산광역시 동구 중앙대로 206,동구,129.045081835992,35.117625470822,1,-1
9025,킹피시카페,커피점/카페,비알콜 음료점업,부산광역시 북구 만덕대로 82-1,북구,129.0139229136,35.2120318656455,3,-1
9042,할리스커피,커피점/카페,비알콜 음료점업,부산광역시 금정구 부산대학로 29,금정구,129.088155842901,35.230803174811,2,2
9142,애니펫애견카페,커피점/카페,비알콜 음료점업,부산광역시 수영구 광일로29번가길 9,수영구,129.110082590283,35.1613509248905,0,-1
9226,스타벅스,커피점/카페,비알콜 음료점업,부산광역시 사하구 낙동남로 1411,사하구,128.966072638306,35.1064995212474,11,-1
9255,한성커피숍,커피점/카페,비알콜 음료점업,부산광역시 영도구 남항로 13,영도구,129.038190845787,35.0898223476942,1,-1
9284,메가커피반여점,커피점/카페,비알콜 음료점업,부산광역시 해운대구 재반로 230-1,해운대구,129.131332802598,35.1978135376378,-1,-1
9286,산수다방,커피점/카페,비알콜 음료점업,부산광역시 동래구 충렬대로108번길 37,동래구,129.072942231628,35.2050422764637,-1,-1
9380,할리스커피일광해안로점,커피점/카페,비알콜 음료점업,부산광역시 기장군 일광면 일광로 370,기장군,129.255456621567,35.2751437623499,-1,-1
9463,가랑,커피점/카페,비알콜 음료점업,부산광역시 동구 범곡북로 11,동구,129.054485499317,35.141611323971,10,-1
9519,이디아커피서대신역점,커피점/카페,비알콜 음료점업,부산광역시 서구 대티로 175-1,서구,129.011957943602,35.1119752998526,18,-1
9522,카페루시,커피점/카페,비알콜 음료점업,부산광역시 해운대구 양운로 55,해운대구,129.176257781481,35.1681898947257,4,-1
9576,엘리스커피,커피점/카페,비알콜 음료점업,부산광역시 중구 중구로 42,중구,129.02809517123,35.1015545093961,1,1
9620,차발원지,커피점/카페,비알콜 음료점업,부산광역시 중구 해관로 61-1,중구,129.035403877038,35.1044579260628,1,1
9631,컴포즈커피,커피점/카페,비알콜 음료점업,부산광역시 금정구 금강로 248-10,금정구,129.085443379261,35.2300523428863,2,2
9639,도노텀블명지국제신도시점,커피점/카페,비알콜 음료점업,부산광역시 강서구 명지국제8로 265,강서구,128.921839737066,35.0982083950972,13,-1
9707,철민이네카페,커피점/카페,비알콜 음료점업,부산광역시 기장군 기장읍 차성남로 13-6,기장군,129.209942719443,35.2419777339471,6,-1
9775,카페휴고,커피점/카페,비알콜 음료점업,부산광역시 금정구 개좌로 155,금정구,129.117040969884,35.2254833357273,-1,-1
9826,이디야커피수영현대점,커피점/카페,비알콜 음료점업,부산광역시 수영구 구락로10번길 23,수영구,129.120977594509,35.1690295541123,0,-1
9959,커피앤커피,커피점/카페,비알콜 음료점업,부산광역시 서구 대영로73번길 66,서구,129.017821684829,35.1133323965987,18,-1
10050,까페블라썸,커피점/카페,비알콜 음료점업,부산광역시 남구 못골로41번길 13,남구,129.086363941801,35.1358312316867,0,-1
10057,스타벅스,커피점/카페,비알콜 음료점업,부산광역시 부산진구 서면로 25,부산진구,129.057298904942,35.1529624007867,10,3
10074,스타벅스,커피점/카페,비알콜 음료점업,부산광역시 서구 구덕로322번길 7,서구,129.0167602861,35.1126652517405,18,-1
10118,컴포즈,커피점/카페,비알콜 음료점업,부산광역시 해운대구 아랫반송로 28,해운대구,129.148711625235,35.2247993482714,-1,-1
10119,카페베네,커피점/카페,비알콜 음료점업,부산광역시 부산진구 당감로 36-1,부산진구,129.039550887645,35.1649512806342,-1,-1
10137,도피오,커피점/카페,비알콜 음료점업,부산광역시 부산진구 부전로 37,부산진구,129.055890369306,35.1535245339561,10,3
10163,코프캣커피공방,커피점/카페,비알콜 음료점업,부산광역시 수영구 광남로 99-1,수영구,129.114792689027,35.1509867947034,0,-1
10179,스타벅스,커피점/카페,비알콜 음료점업,부산광역시 동래구 중앙대로 1523,동래구,129.08560153654,35.2213075406717,2,-1
10315,스타벅스,커피점/카페,비알콜 음료점업,부산광역시 해운대구 센텀동로 9,해운대구,129.132482667416,35.1698870198936,5,4
10341,바리스타에스프레소,커피점/카페,비알콜 음료점업,부산광역시 수영구 광남로 121,수영구,129.116021306869,35.1525529119964,0,-1
10344,할리스커피,커피점/카페,비알콜 음료점업,부산광역시 부산진구 동천로 73,부산진구,129.062124732877,35.1552457850337,10,3
10386,엔제리너스부산온천천점,커피점/카페,비알콜 음료점업,부산광역시 동래구 온천천로 361,동래구,129.092977576223,35.1938571954896,7,-1
10387,경진커피,커피점/카페,비알콜 음료점업,부산광역시 수영구 수영로 606,수영구,129.113837302107,35.1598021327537,0,-1
10457,나임카페,커피점/카페,비알콜 음료점업,부산광역시 사하구 다대로134번길 96,사하구,128.976072260127,35.0923484355573,-1,-1
10514,스타벅스,커피점/카페,비알콜 음료점업,부산광역시 사상구 사상로 211,사상구,128.983425647611,35.1639866756647,14,-1
10578,할리스커피사상점,커피점/카페,비알콜 음료점업,부산광역시 사상구 광장로 90,사상구,128.986548345455,35.1616987761961,14,-1
10666,스타벅스,커피점/카페,비알콜 음료점업,부산광역시 남구 수영로 312,남구,129.10064436277,35.1370003770109,0,0
10686,커피베이,커피점/카페,비알콜 음료점업,부산광역시 남구 수영로 345,남구,129.103526640392,35.1399848089797,0,0
10720,티원원금사점,커피점/카페,비알콜 음료점업,부산광역시 금정구 반송로 412-1,금정구,129.109283407386,35.2140170318184,-1,-1
10724,스타벅스,커피점/카페,비알콜 음료점업,부산광역시 부산진구 서전로 1,부산진구,129.059921644154,35.1580143250476,10,3
10736,스타벅스,커피점/카페,비알콜 음료점업,부산광역시 해운대구 해운대해변로 257,해운대구,129.159540011725,35.1597068330641,12,5
10772,양탕국아저씨작은커피점,커피점/카페,비알콜 음료점업,부산광역시 기장군 정관읍 두명2길 12-45,기장군,129.148036105171,35.3528896111381,-1,-1
10821,커피나무,커피점/카페,비알콜 음료점업,부산광역시 동구 구봉로 20,동구,129.038043149041,35.1222921054776,1,-1
10913,설빙,커피점/카페,비알콜 음료점업,부산광역시 동래구 금강공원로20번길 46,동래구,129.083522747987,35.2211008195001,2,-1
10929,버자야에이치알카페코리아,커피점/카페,비알콜 음료점업,부산광역시 해운대구 해운대해변로298번길 13,해운대구,129.16503163418,35.1615019773597,12,5
10930,스타벅스,커피점/카페,비알콜 음료점업,부산광역시 해운대구 달맞이길 57,해운대구,129.170782232651,35.161437524362,12,-1
10951,카페반디나무,커피점/카페,비알콜 음료점업,부산광역시 중구 남포길 14-1,중구,129.030353395312,35.0988401425913,1,1
10964,자활물류유통협동조합,커피점/카페,비알콜 음료점업,부산광역시 연제구 과정로 207,연제구,129.104707099413,35.1875312200712,7,-1
11054,스타벅스,커피점/카페,비알콜 음료점업,부산광역시 사하구 다대로 708,사하구,128.964199624224,35.0489411922395,-1,-1
11070,THINKCOFFEE,커피점/카페,비알콜 음료점업,부산광역시 해운대구 센텀서로 30,해운대구,129.128462304753,35.1720788458596,5,4
11079,본까스델리카페,커피점/카페,비알콜 음료점업,부산광역시 동래구 중앙대로 1393,동래구,129.077500271184,35.2117261185445,2,-1
11144,에이치투커피로스터스,커피점/카페,비알콜 음료점업,부산광역시 기장군 기장읍 대청로71번길 29,기장군,129.218919720183,35.2390844122723,6,-1
11151,스타벅스,커피점/카페,비알콜 음료점업,부산광역시 해운대구 달맞이길 189,해운대구,129.18232239807,35.1579362612154,-1,-1
11160,거제종합사회복지관실버카페보나뻬띠,커피점/카페,비알콜 음료점업,부산광역시 연제구 아시아드대로46번길 45,연제구,129.0707263039,35.1884944275128,-1,-1
11161,아방가르드,커피점/카페,비알콜 음료점업,부산광역시 영도구 태종로358번길 3,영도구,129.063699902613,35.0940812212246,-1,-1
11181,행복한카페,커피점/카페,비알콜 음료점업,부산광역시 부산진구 양지로5번길 47,부산진구,129.070899500226,35.1715648321217,8,-1
11197,고려학원영도구장애인복지회관카,커피점/카페,비알콜 음료점업,부산광역시 영도구 태종로 423,영도구,129.067939984285,35.091231578972,-1,-1
11218,로스터리카페보나,커피점/카페,비알콜 음료점업,부산광역시 중구 해관로 63,중구,129.035394163298,35.1045571632754,1,1
11223,와촌식육식당,커피점/카페,비알콜 음료점업,부산광역시 남구 용소로21번길 103,남구,129.105314858629,35.1375167294861,0,0
11279,설빙,커피점/카페,비알콜 음료점업,부산광역시 기장군 정관읍 정관로 566,기장군,129.175600589022,35.3212935620665,16,-1
11302,제일커피,커피점/카페,비알콜 음료점업,부산광역시 중구 중구로 42,중구,129.02809517123,35.1015545093961,1,1
11392,원다방,커피점/카페,비알콜 음료점업,부산광역시 기장군 일광면 일광로 106,기장군,129.233748636404,35.2657225754781,-1,-1
11397,엔제리너스,커피점/카페,비알콜 음료점업,부산광역시 해운대구 마린시티2로 38,해운대구,129.143357288326,35.1570573391424,15,-1
11487,S갤러리,커피점/카페,비알콜 음료점업,부산광역시 기장군 철마면 안평로11번나길 13,기장군,129.175724490477,35.2363208962568,-1,-1
11491,알리바바,커피점/카페,비알콜 음료점업,부산광역시 사하구 낙동대로 512,사하구,128.966235412782,35.1100678006562,11,-1
11517,프린세스커피,커피점/카페,비알콜 음료점업,부산광역시 사하구 하신번영로 233,사하구,128.957990989379,35.1010920959685,-1,-1
11530,모로코페스,커피점/카페,비알콜 음료점업,부산광역시 부산진구 범일로 171,부산진구,129.058891860105,35.145457909383,10,-1
11579,올리브라임,커피점/카페,비알콜 음료점업,부산광역시 기장군 기장읍 소정길 12-17,기장군,129.205894682259,35.2015557470546,-1,-1
11737,더카페반디나무,커피점/카페,비알콜 음료점업,부산광역시 부산진구 거제천로40번길 23,부산진구,129.072609153593,35.1788689791463,8,-1
11834,유티비커피,커피점/카페,비알콜 음료점업,부산광역시 강서구 명지오션시티8로30번길 20,강서구,128.910175427143,35.0858840261673,-1,-1
11890,설빙,커피점/카페,비알콜 음료점업,부산광역시 사상구 사상로 200,사상구,128.98463188926,35.162976325387,14,-1
11928,이디야커피,커피점/카페,비알콜 음료점업,부산광역시 중구 해관로 66-1,중구,129.035660690186,35.10481629337,1,1
12077,트와이스본,커피점/카페,비알콜 음료점업,부산광역시 수영구 수영로 711,수영구,129.117246417044,35.1683068616589,0,-1
12142,보림커피숍,커피점/카페,비알콜 음료점업,부산광역시 동구 범곡북로 11,동구,129.054485499317,35.141611323971,10,-1
12382,대화다방,커피점/카페,비알콜 음료점업,부산광역시 강서구 명지새동네길2번길 57,강서구,128.93138117576,35.1068250892435,-1,-1
12383,베르,커피점/카페,비알콜 음료점업,부산광역시 북구 의성로77번길 19,북구,129.010992433625,35.2139673157648,3,-1
12404,이엘카페,커피점/카페,비알콜 음료점업,부산광역시 중구 대청로126번길 22,중구,129.034000539241,35.1010355589623,1,1
12414,스타벅스,커피점/카페,비알콜 음료점업,부산광역시 해운대구 센텀2로 25,해운대구,129.13297998235,35.1669618879898,5,4
12498,리스펙트커피,커피점/카페,비알콜 음료점업,부산광역시 서구 대신공원로 2,서구,129.01659857047,35.1181922054763,18,-1
12501,카페데니스,커피점/카페,비알콜 음료점업,부산광역시 부산진구 전포대로306번길 36,부산진구,129.06668818284,35.1659953448832,8,-1
12575,카페온유,커피점/카페,비알콜 음료점업,부산광역시 강서구 신호산단4로 55,강서구,128.879031578187,35.085942512087,-1,-1
12667,커피에반하다,커피점/카페,비알콜 음료점업,부산광역시 강서구 명지오션시티12로 75,강서구,128.904224567928,35.0822597772093,-1,-1
12668,디에이치커피,커피점/카페,비알콜 음료점업,부산광역시 강서구 평강로 374,강서구,128.948926165037,35.2178589278743,-1,-1
12677,풀하우스카페,커피점/카페,비알콜 음료점업,부산광역시 기장군 일광면 일광로 582-14,기장군,129.260198970254,35.2939146911745,-1,-1
12710,본죽앤비빔밥카페,커피점/카페,비알콜 음료점업,"부산광역시 강서구 명지국제8로 240, (명지동)",강서구,128.918918151763,35.097842964819,13,-1
12748,투썸플레이스,커피점/카페,비알콜 음료점업,부산광역시 해운대구 센텀3로 32,해운대구,129.133775317305,35.1665307965723,5,4
12763,산뽀,커피점/카페,비알콜 음료점업,부산광역시 금정구 부산대학로64번안길 2,금정구,129.085411689793,35.2359206026603,2,2
12818,cafe051,커피점/카페,비알콜 음료점업,부산광역시 중구 광복로55번길 13,중구,129.029892478815,35.0996913780806,1,1
12822,엔제리너스,커피점/카페,비알콜 음료점업,부산광역시 해운대구 송정광어골로 83,해운대구,129.196695205688,35.1740559753679,-1,-1
12837,카페위고,커피점/카페,비알콜 음료점업,부산광역시 북구 낙동대로1780번길 15,북구,129.004687417986,35.2094677835487,3,-1
12914,코코로스터스,커피점/카페,비알콜 음료점업,부산광역시 부산진구 중앙대로680번길 680,부산진구,129.059523118025,35.1535198623623,10,3
12935,인더,커피점/카페,비알콜 음료점업,부산광역시 중구 대교로 116,중구,129.038617438208,35.1009780673521,1,1
13013,카페스토리웨이,커피점/카페,비알콜 음료점업,부산광역시 동구 중앙대로 206,동구,129.045081835992,35.117625470822,1,-1
13026,밀크앤허니부산프리미엄아울렛점,커피점/카페,비알콜 음료점업,부산광역시 기장군 장안읍 정관로 1133,기장군,129.234970505052,35.3237482824346,-1,-1
13053,스타벅스,커피점/카페,비알콜 음료점업,부산광역시 해운대구 송정해변로 36,해운대구,129.202282582024,35.180742924138,-1,-1
13084,제주스,커피점/카페,비알콜 음료점업,부산광역시 중구 중앙대로 2,중구,129.036730232514,35.0983260672492,1,1
13087,할리스커피,커피점/카페,비알콜 음료점업,부산광역시 동구 조방로 15,동구,129.062287914592,35.1382440723101,10,-1
13115,엘림,커피점/카페,비알콜 음료점업,부산광역시 기장군 장안읍 하장안1길 5-7,기장군,129.249269165285,35.3638464431128,-1,-1
13209,브링업,커피점/카페,비알콜 음료점업,부산광역시 동구 홍곡남로 8,동구,129.039685729846,35.1246396926652,1,-1
13316,펫그라운드,커피점/카페,비알콜 음료점업,부산광역시 북구 만덕대로 119,북구,129.018103442403,35.2134660466442,-1,-1
13323,카페지로,커피점/카페,비알콜 음료점업,부산광역시 부산진구 가야대로454번길 42,부산진구,129.021651422923,35.1512040330383,-1,-1
13338,컴포즈커피,커피점/카페,비알콜 음료점업,부산광역시 연제구 연수로 100,연제구,129.081638944451,35.1751290455893,8,-1
13428,젬스톤,커피점/카페,비알콜 음료점업,부산광역시 영도구 대교로6번길 33,영도구,129.044798769263,35.094588097749,1,-1
13496,뮤직카페본,커피점/카페,비알콜 음료점업,부산광역시 수영구 광안해변로 249,수영구,129.12119370242,35.1551822756681,0,-1
13517,커피아카데미,커피점/카페,비알콜 음료점업,부산광역시 남구 수영로219번길 5,남구,129.090438620074,35.1352898561321,0,-1
13545,cafeJoyful,커피점/카페,비알콜 음료점업,부산광역시 동래구 온천천로431번길 24-23,동래구,129.101187806229,35.1928003080501,7,-1
13607,커피나무,커피점/카페,비알콜 음료점업,부산광역시 영도구 남항로9번길 5,영도구,129.037658443261,35.0902145087315,1,-1
13638,돌,커피점/카페,비알콜 음료점업,부산광역시 동구 중앙대로 318,동구,129.045260543805,35.1247449813456,1,-1
13662,달콤커피,커피점/카페,비알콜 음료점업,부산광역시 동래구 동래로19번길 2,동래구,129.078140769254,35.2128201032484,2,-1
13687,모뉴망,커피점/카페,비알콜 음료점업,부산광역시 부산진구 동천로 92,부산진구,129.063037211547,35.157049580457,10,3
13730,빽다방,커피점/카페,비알콜 음료점업,부산광역시 부산진구 중앙대로680번가길 9,부산진구,129.06074567789,35.1538516943062,10,3
13736,톡톡,커피점/카페,비알콜 음료점업,부산광역시 영도구 태종로 326-1,영도구,129.061305724249,35.0963647180885,-1,-1
13743,블루포트영산대학교점,커피점/카페,비알콜 음료점업,부산광역시 해운대구 반송순환로 142,해운대구,129.159083223192,35.2241686728192,-1,-1
13755,파스쿠찌,커피점/카페,비알콜 음료점업,부산광역시 부산진구 새싹로 27,부산진구,129.056898097001,35.1601590110687,10,3
13804,쥬씨대연못골점,커피점/카페,비알콜 음료점업,부산광역시 남구 진남로 10,남구,129.091969427598,35.1357087404325,0,0
13826,메가커피,커피점/카페,비알콜 음료점업,부산광역시 해운대구 대천로103번길 47,해운대구,129.174068899267,35.1793341339847,4,-1
13906,쥬씨동의대점,커피점/카페,비알콜 음료점업,부산광역시 부산진구 엄광로 183,부산진구,129.034483536584,35.1479222400846,-1,-1
13960,쥬씨부산진역점,커피점/카페,비알콜 음료점업,부산광역시 동구 진성로9번길 21,동구,129.047695441003,35.128969542165,1,-1
13964,BMCcafe,커피점/카페,비알콜 음료점업,부산광역시 동구 자성로133번길 15,동구,129.064099106241,35.1382912794558,10,-1
14000,신세계푸드김해공항국내선스무디킹,커피점/카페,비알콜 음료점업,부산광역시 강서구 공항진입로 108,강서구,128.945755851608,35.17273274068,-1,-1
14084,복다방,커피점/카페,비알콜 음료점업,부산광역시 중구 중구로33번길 34,중구,129.026049520723,35.1011121232373,1,1
14141,오빠다방,커피점/카페,비알콜 음료점업,부산광역시 남구 수영로334번길 48,남구,129.103435319262,35.1364702172216,0,0
14164,웰킨에스프레소,커피점/카페,비알콜 음료점업,부산광역시 동래구 여고북로 169,동래구,129.074113813277,35.2022736536841,-1,-1
14182,화이트콩,커피점/카페,비알콜 음료점업,부산광역시 사하구 낙동대로 360,사하구,128.978434011424,35.1018482773311,-1,-1
14210,이솝페이블,커피점/카페,비알콜 음료점업,부산광역시 금정구 금정로60번길 16,금정구,129.087128935343,35.2295865267446,2,2
14219,해리스,커피점/카페,비알콜 음료점업,부산광역시 남구 유엔평화로76번길 1,남구,129.093501639427,35.1272038060959,0,-1
14250,대가,커피점/카페,비알콜 음료점업,부산광역시 사상구 사상로46번길 4,사상구,128.99545379533,35.1529815186488,-1,-1
14268,할리스커피부산명지국제신도시점,커피점/카페,비알콜 음료점업,부산광역시 강서구 명지국제11로 59,강서구,128.92512405288,35.1044662277663,13,-1
14306,자연드림카페,커피점/카페,비알콜 음료점업,부산광역시 북구 와석장터로 16,북구,129.0158400238,35.2354338263269,17,-1
14348,윤카롱,커피점/카페,비알콜 음료점업,부산광역시 동래구 온천천로431번길 19,동래구,129.099825664177,35.1927586036801,7,-1
14353,어반테이블,커피점/카페,비알콜 음료점업,부산광역시 강서구 명지오션시티8로30번길 21,강서구,128.910052504755,35.0856776229308,-1,-1
14451,메쉬커피,커피점/카페,비알콜 음료점업,부산광역시 서구 구덕로199번길 20,서구,129.018862967867,35.1026870892041,1,-1
14607,스타벅스사직구장점,커피점/카페,비알콜 음료점업,부산광역시 동래구 사직북로 4,동래구,129.061384849855,35.1962835154483,9,-1
14642,슈퍼사이즈커피,커피점/카페,비알콜 음료점업,부산광역시 사상구 사상로 290,사상구,128.98295636132,35.1705977325307,14,-1
14834,초량845,커피점/카페,비알콜 음료점업,부산광역시 동구 망양로533번길 8,동구,129.029724795325,35.1194966066448,-1,-1
14844,휴카페,커피점/카페,비알콜 음료점업,부산광역시 사하구 승학로 247,사하구,128.991098759623,35.1033499120699,-1,-1
14847,여우별,커피점/카페,비알콜 음료점업,부산광역시 부산진구 중앙대로702번길 15,부산진구,129.060075941494,35.1555251323026,10,3
14863,하삼동커피,커피점/카페,비알콜 음료점업,부산광역시 부산진구 엄광로 137,부산진구,129.029891450756,35.1475467158036,-1,-1
14864,릴요거트제니스점,커피점/카페,비알콜 음료점업,부산광역시 해운대구 마린시티2로 33,해운대구,129.144841326609,35.1572236013279,15,-1
14892,카페이탈리아부산,커피점/카페,비알콜 음료점업,부산광역시 해운대구 센텀1로 9,해운대구,129.131339766912,35.1674188954877,5,4
14966,이디야커피,커피점/카페,비알콜 음료점업,부산광역시 해운대구 해운대해변로 140,해운대구,129.146515374093,35.1584156241557,15,-1
14972,PLZZAHOUSE,커피점/카페,비알콜 음료점업,부산광역시 동구 중앙대로226번길 7-3,동구,129.041827938359,35.1171036276919,1,-1
15007,더엘리커피,커피점/카페,비알콜 음료점업,부산광역시 사하구 감천로139번길 32,사하구,129.006561361555,35.0879256549593,-1,-1
15014,카페,커피점/카페,비알콜 음료점업,부산광역시 해운대구 달맞이길 58,해운대구,129.171150978301,35.1611274908897,12,-1
15015,자스민커피,커피점/카페,비알콜 음료점업,"부산광역시 금정구 금정로68번길 42, (장전동)",금정구,129.08869807424,35.2302754993617,2,2
15067,하비비,커피점/카페,비알콜 음료점업,부산광역시 북구 덕천로 40,북구,129.009292983283,35.2079962698769,3,-1
15069,컴포즈가야점,커피점/카페,비알콜 음료점업,부산광역시 부산진구 대학로 13,부산진구,129.037206569747,35.1540825337562,-1,-1
15078,티아모,커피점/카페,비알콜 음료점업,부산광역시 남구 못골로 28-1,남구,129.085449475955,35.1355509802414,0,-1
15134,이디야커피,커피점/카페,비알콜 음료점업,부산광역시 북구 구포만세길 115,북구,128.998109876109,35.2068720957645,-1,-1
15155,더치커피판매점,커피점/카페,비알콜 음료점업,부산광역시 사하구 다대로 630,사하구,128.970124924799,35.0503903070254,-1,-1
15191,코나,커피점/카페,비알콜 음료점업,부산광역시 연제구 신금로5번길 10,연제구,129.093526849667,35.1897779816359,7,-1
15220,드므,커피점/카페,비알콜 음료점업,부산광역시 동래구 쇠미로129번길 62-12,동래구,129.060146652427,35.2049386529418,9,-1
15227,보나단헤어엔카페,커피점/카페,비알콜 음료점업,부산광역시 금정구 금강로 361,금정구,129.086250266053,35.2403118038949,2,2
15244,우주라이크커피,커피점/카페,비알콜 음료점업,부산광역시 해운대구 아랫반송로21번길 10,해운대구,129.148568781696,35.2255758847665,-1,-1
15268,홀릭커피디저트,커피점/카페,비알콜 음료점업,부산광역시 부산진구 동천로108번길 9,부산진구,129.062813474538,35.1584126451318,10,3
15279,탐앤탐스,커피점/카페,비알콜 음료점업,부산광역시 영도구 태종로 825,영도구,129.081527684138,35.0629603690758,-1,-1
15316,카페더찬,커피점/카페,비알콜 음료점업,부산광역시 금정구 금강로279번길 62,금정구,129.083866310452,35.2345463282713,2,2
15347,투썸플레이스,커피점/카페,비알콜 음료점업,부산광역시 사상구 새벽로 220,사상구,128.984540294572,35.1608407547262,14,-1
15348,파고다아카데미,커피점/카페,비알콜 음료점업,부산광역시 부산진구 중앙대로 677,부산진구,129.058859539439,35.1531290505571,10,3
15380,더벤티,커피점/카페,비알콜 음료점업,부산광역시 동래구 사직북로 9,동래구,129.060568514616,35.1968405135146,9,-1
15461,더웨이닝커피해운대점,커피점/카페,비알콜 음료점업,부산광역시 해운대구 해운대로570번길 53,해운대구,129.159886745305,35.160163218445,12,5
15475,할리스커피,커피점/카페,비알콜 음료점업,부산광역시 금정구 부산대학로63번길 2,금정구,129.083855791079,35.232103685788,2,2
15512,어흥떡카페,커피점/카페,비알콜 음료점업,부산광역시 사상구 엄궁로 206,사상구,128.972974789499,35.1307101762378,-1,-1
15525,아자부카페부산서면점,커피점/카페,비알콜 음료점업,부산광역시 부산진구 가야대로 760,부산진구,129.054523566732,35.1573222885337,10,3
15610,이디야커피,커피점/카페,비알콜 음료점업,부산광역시 서구 구덕로 212,서구,129.020289433678,35.1036125530712,1,-1
15625,더벤티,커피점/카페,비알콜 음료점업,부산광역시 부산진구 새싹로 183,부산진구,129.049531148133,35.1719681932046,-1,-1
15626,컴포,커피점/카페,비알콜 음료점업,부산광역시 연제구 교대로 18,연제구,129.077946325328,35.1956144206667,-1,-1
15627,공감스터디라운지,커피점/카페,비알콜 음료점업,부산광역시 기장군 정관읍 정관로 489,기장군,129.170383889176,35.3263737432161,-1,-1
15631,더벤티,커피점/카페,비알콜 음료점업,부산광역시 기장군 기장읍 차성로344번길 10,기장군,129.214514905604,35.2479800842405,6,-1
15632,크레이프라이언,커피점/카페,비알콜 음료점업,부산광역시 금정구 서금로 2-2,금정구,129.102778983415,35.2170960751471,-1,-1
15633,컴포,커피점/카페,비알콜 음료점업,부산광역시 기장군 정관읍 정관로 385,기장군,129.165569444213,35.3350011662032,-1,-1
15634,이루리스터디,커피점/카페,비알콜 음료점업,부산광역시 금정구 시실로 11-3,금정구,129.085797067822,35.2178444853871,2,-1
15635,텐퍼센트일광,커피점/카페,비알콜 음료점업,부산광역시 기장군 일광면 해송3로 18,기장군,129.23108558653,35.2669485087517,-1,-1
15636,브라운버드갑을녹산병원점,커피점/카페,비알콜 음료점업,부산광역시 강서구 녹산산단321로 24-8,강서구,128.853341725883,35.0905790299915,-1,-1
15690,코스모스,커피점/카페,비알콜 음료점업,부산광역시 북구 덕천1길 93,북구,129.01055853651,35.2108611461706,3,-1
15747,전통한방다전,커피점/카페,비알콜 음료점업,부산광역시 사하구 옥천로 8,사하구,129.005566718333,35.0881953154637,-1,-1
15789,커피엣윤스,커피점/카페,비알콜 음료점업,부산광역시 북구 사상로 594,북구,128.990984829101,35.1971414992969,-1,-1
15876,더리터,커피점/카페,비알콜 음료점업,부산광역시 해운대구 세실로 64,해운대구,129.177692349779,35.1709972697643,4,-1
15906,스타벅스,커피점/카페,비알콜 음료점업,부산광역시 사하구 하신번영로 381-6,사하구,128.959562347489,35.1153760139958,11,-1
15916,까페그날엔,커피점/카페,비알콜 음료점업,부산광역시 강서구 낙동북로21번길 7,강서구,128.932708399547,35.2202745010403,-1,-1
15930,북카페뮤즈,커피점/카페,비알콜 음료점업,부산광역시 남구 전포대로 133,남구,129.065458333468,35.1482848068035,10,3
15944,원더러스트커피,커피점/카페,비알콜 음료점업,부산광역시 해운대구 센텀중앙로 78,해운대구,129.127026686657,35.1746431258659,5,4
15945,발레나식스,커피점/카페,비알콜 음료점업,부산광역시 기장군 장안읍 월내해안길 81,기장군,129.278165121983,35.3262016762266,-1,-1
15946,커피라온,커피점/카페,비알콜 음료점업,부산광역시 북구 상학산복길 49,북구,129.033131114569,35.2162592363894,-1,-1
15969,카페카와,커피점/카페,비알콜 음료점업,부산광역시 중구 광복로 54-2,중구,129.031037080185,35.0991317936861,1,1
15994,텐퍼센트커피,커피점/카페,비알콜 음료점업,부산광역시 부산진구 중앙대로 802,부산진구,129.063918736629,35.1632163738638,10,3
16069,인테리어북앤카페이노,커피점/카페,비알콜 음료점업,부산광역시 중구 중앙대로 77,중구,129.036008344697,35.104551916326,1,1
16070,카페301,커피점/카페,비알콜 음료점업,부산광역시 남구 용소로 15,남구,129.100970286658,35.1359427887788,0,0
16088,청년다방,커피점/카페,비알콜 음료점업,부산광역시 동구 초량중로 20-1,동구,129.036915705411,35.1138376081923,1,-1
16089,123,커피점/카페,비알콜 음료점업,부산광역시 수영구 남천바다로33번길 22,수영구,129.114759220471,35.1493375631355,0,-1
16111,부산시민공원숲속북카페,커피점/카페,비알콜 음료점업,부산광역시 부산진구 범양로45번길 61-6,부산진구,129.061900443583,35.1709229441628,-1,-1
16136,자스민커피사직점,커피점/카페,비알콜 음료점업,부산광역시 동래구 사직북로 23,동래구,129.060252588224,35.1978798744062,9,-1
16177,북카페하늘정원,커피점/카페,비알콜 음료점업,부산광역시 해운대구 우동1로 27-1,해운대구,129.156487048871,35.1642429233173,12,5
16178,베스킨라빈스,커피점/카페,비알콜 음료점업,부산광역시 부산진구 성지로 158,부산진구,129.047510742157,35.1821984372608,-1,-1
16199,FM에스프레소,커피점/카페,비알콜 음료점업,부산광역시 동래구 사직로 56,동래구,129.059719298747,35.1957122009807,9,-1
16200,클라우드밤카페,커피점/카페,비알콜 음료점업,부산광역시 중구 중구로6번길 6-1,중구,129.028614304038,35.0983501232515,1,1
16225,MINsMINs,커피점/카페,비알콜 음료점업,부산광역시 연제구 중앙대로 1223,연제구,129.079430706392,35.1965927213844,2,-1
16226,피오티아이디,커피점/카페,비알콜 음료점업,부산광역시 부산진구 중앙대로680번길 22,부산진구,129.060520349025,35.15340297049,10,3
16250,오드이븐,커피점/카페,비알콜 음료점업,부산광역시 수영구 연수로 419,수영구,129.114847052264,35.1678422194771,0,-1
16254,컴포,커피점/카페,비알콜 음료점업,부산광역시 동래구 시실로 49,동래구,129.087293670548,35.2164068715471,2,-1
16279,카페벨라비,커피점/카페,비알콜 음료점업,부산광역시 해운대구 송정광어골로 25,해운대구,129.198149093821,35.1788729720815,-1,-1
16375,카페,커피점/카페,비알콜 음료점업,부산광역시 사상구 사상로 310,사상구,128.983779580655,35.1724118725501,-1,-1
16376,빈티지38,커피점/카페,비알콜 음료점업,부산광역시 동구 중앙대로 206,동구,129.045081835992,35.117625470822,1,-1
16381,문,커피점/카페,비알콜 음료점업,부산광역시 기장군 기장읍 내리길 146-5,기장군,129.199680921882,35.2173553921585,-1,-1
16438,제일커피숍,커피점/카페,비알콜 음료점업,부산광역시 동래구 충렬대로 343,동래구,129.096241328481,35.198947549473,7,-1
16480,달과6펜스,커피점/카페,비알콜 음료점업,부산광역시 사하구 감내1로175번길 13,사하구,129.008840932185,35.0958210617516,-1,-1
16490,카페,커피점/카페,비알콜 음료점업,부산광역시 서구 구덕로 328,서구,129.016437045992,35.1131366920188,18,-1
16499,드롭탑,커피점/카페,비알콜 음료점업,부산광역시 기장군 기장읍 기장해안로 128,기장군,129.213675065694,35.1901117298061,-1,-1
16547,호토모토,커피점/카페,비알콜 음료점업,부산광역시 동구 중앙대로 206,동구,129.045081835992,35.117625470822,1,-1
16553,커피트리,커피점/카페,비알콜 음료점업,부산광역시 금정구 오륜대로 46,금정구,129.096955843181,35.2430816234396,2,-1
16615,빽다방,커피점/카페,비알콜 음료점업,부산광역시 북구 백양대로 1038,북구,128.996134957382,35.1980366921032,-1,-1
16636,빽다방,커피점/카페,비알콜 음료점업,부산광역시 부산진구 서면문화로 11-2,부산진구,129.057196894265,35.158651079039,10,3
16640,라이즈커피,커피점/카페,비알콜 음료점업,부산광역시 해운대구 센텀2로 20,해운대구,129.132061409074,35.1672138493131,5,4
16641,메가엠지씨커피지,커피점/카페,비알콜 음료점업,부산광역시 강서구 과학산단로 349,강서구,128.83120791535,35.148675918062,-1,-1
16643,흙커피숍,커피점/카페,비알콜 음료점업,부산광역시 수영구 과정로 73,수영구,129.10700230585,35.177847427601,-1,-1
16648,카페알덤,커피점/카페,비알콜 음료점업,부산광역시 동구 자성로133번길 10,동구,129.065104768519,35.1379939983492,10,-1
16694,JJ165커피숍,커피점/카페,비알콜 음료점업,부산광역시 강서구 낙동남로 648,강서구,128.889079009151,35.1164543086486,-1,-1
16705,에소테릭타로,커피점/카페,비알콜 음료점업,부산광역시 부산진구 전포대로186번길 30,부산진구,129.067155601129,35.15303823661,10,3
16706,소울타로,커피점/카페,비알콜 음료점업,부산광역시 해운대구 해운대로61번길 82,해운대구,129.127504700833,35.1949467996731,-1,-1
16707,포근타로,커피점/카페,비알콜 음료점업,부산광역시 부산진구 동평로 352,부산진구,129.063343263052,35.1729744698838,-1,-1
16708,부산역1층스무디킹,커피점/카페,비알콜 음료점업,부산광역시 동구 중앙대로 206,동구,129.045081835992,35.117625470822,1,-1
16731,아리스타커피부산점,커피점/카페,비알콜 음료점업,부산광역시 동구 중앙대로196번길 6-5,동구,129.040076769084,35.1139727793053,1,-1
16732,핸즈커피,커피점/카페,비알콜 음료점업,부산광역시 금정구 중앙대로 2033,금정구,129.092272877289,35.2658386271794,-1,-1
16767,카페우니스,커피점/카페,비알콜 음료점업,부산광역시 금정구 금샘로 401,금정구,129.083927454326,35.2589550671454,-1,-1
16801,가온커피,커피점/카페,비알콜 음료점업,부산광역시 서구 암남공원로 235,서구,129.013934883509,35.0643194345936,-1,-1
16915,카페,커피점/카페,비알콜 음료점업,부산광역시 금정구 금강로565번길 12,금정구,129.087024331396,35.2579718284527,-1,-1
16937,류이젠,커피점/카페,비알콜 음료점업,부산광역시 기장군 장안읍 정관로 1133,기장군,129.234970505052,35.3237482824346,-1,-1
16938,셀렉토커피,커피점/카페,비알콜 음료점업,부산광역시 사하구 낙동대로233번길 5,사하구,128.991650670504,35.0991087864235,-1,-1
16939,테라스커피,커피점/카페,비알콜 음료점업,부산광역시 영도구 동삼로 56,영도구,129.07082138336,35.0784242914638,-1,-1
16944,하삼동서면동일파크스위트점,커피점/카페,비알콜 음료점업,부산광역시 부산진구 동평로 162,부산진구,129.045967561183,35.165436883472,-1,-1
17008,샐러디,커피점/카페,비알콜 음료점업,부산광역시 부산진구 중앙대로 668,부산진구,129.05961883536,35.1524373538138,10,3
17047,할리스커피부산수영로터리점,커피점/카페,비알콜 음료점업,부산광역시 수영구 수영로 710-1,수영구,129.117249256402,35.1677119214557,0,-1
17158,레스토,커피점/카페,비알콜 음료점업,부산광역시 기장군 정관읍 방곡2로 14-6,기장군,129.189616850029,35.326149972286,-1,-1
17166,계단카페,커피점/카페,비알콜 음료점업,부산광역시 금정구 금샘로 489,금정구,129.084388757526,35.2663602327371,-1,-1
17180,고고커피,커피점/카페,비알콜 음료점업,부산광역시 금정구 중앙대로 1784,금정구,129.093765835486,35.2436242797988,2,-1
17199,Cafe봉봉,커피점/카페,비알콜 음료점업,부산광역시 기장군 기장읍 차성로 234,기장군,129.213546859526,35.2383181639484,-1,-1
17200,버몬트,커피점/카페,비알콜 음료점업,부산광역시 수영구 수영로594번길 37,수영구,129.115467626958,35.1586243442674,0,-1
17201,감성커피부산낙민,커피점/카페,비알콜 음료점업,부산광역시 동래구 충렬대로350번길 41,동래구,129.097728621053,35.1960406375467,7,-1
17235,세현,커피점/카페,비알콜 음료점업,부산광역시 사하구 홍티로 116,사하구,128.959857585888,35.0656878801774,-1,-1
17307,텐퍼센트민락오션테라스점,커피점/카페,비알콜 음료점업,부산광역시 수영구 광안해변로326번길 10,수영구,129.128702255087,35.1560770399544,0,-1
17326,스타벅스,커피점/카페,비알콜 음료점업,부산광역시 금정구 부산대학로64번길 12,금정구,129.084581127286,35.2321242300263,2,2
17370,티니위니카페,커피점/카페,비알콜 음료점업,부산광역시 금정구 부산대학로63번길 2,금정구,129.083855791079,35.232103685788,2,2
17454,카페,커피점/카페,비알콜 음료점업,부산광역시 남구 우암로 124,남구,129.082236617967,35.1216171193291,-1,-1
17459,메가엠지씨커피아시아드,커피점/카페,비알콜 음료점업,부산광역시 해운대구 선수촌로 80,해운대구,129.119383004544,35.2008450641498,-1,-1
17462,헤이휴,커피점/카페,비알콜 음료점업,부산광역시 부산진구 해맞이로 4,부산진구,129.06596291694,35.1751868901617,8,-1
17570,토마스비디오커피,커피점/카페,비알콜 음료점업,부산광역시 영도구 동삼로 81,영도구,129.070412375741,35.0806904223945,-1,-1
17580,바스타커피,커피점/카페,비알콜 음료점업,부산광역시 동래구 사직북로33번길 23,동래구,129.058942478203,35.1984682255214,9,-1
17581,밀당커피숍,커피점/카페,비알콜 음료점업,부산광역시 사상구 새벽로 202,사상구,128.984136185583,35.15918546378,14,-1
17624,하삼동커피,커피점/카페,비알콜 음료점업,부산광역시 사하구 감천로 47,사하구,128.997825035344,35.0909544777145,-1,-1
17659,카페이레,커피점/카페,비알콜 음료점업,부산광역시 금정구 금정로 79,금정구,129.086498846059,35.2317645073583,2,2
17702,쌩스,커피점/카페,비알콜 음료점업,부산광역시 해운대구 해운대해변로 52,해운대구,129.138099155701,35.1625151511729,5,-1
17705,파스쿠찌부산남산점,커피점/카페,비알콜 음료점업,부산광역시 금정구 금샘로 351,금정구,129.08461640939,35.2545772229642,-1,-1
17707,카페,커피점/카페,비알콜 음료점업,부산광역시 기장군 정관읍 정관로 712,기장군,129.190578933101,35.3212551598027,-1,-1
17717,메가엠지씨커피,커피점/카페,비알콜 음료점업,부산광역시 동구 초량중로 94,동구,129.040033426303,35.1200576013911,1,-1
17743,사무실퓨전카페,커피점/카페,비알콜 음료점업,부산광역시 해운대구 달맞이길117번다길 155,해운대구,129.181807168814,35.1610149913424,4,-1
17808,타로마스터개인사업자,커피점/카페,비알콜 음료점업,부산광역시 수영구 광일로20번길 20-25,수영구,129.111749611214,35.1636702286275,0,-1
17819,단지다방,커피점/카페,비알콜 음료점업,부산광역시 기장군 기장읍 차성동로 77,기장군,129.216596399758,35.2446241336586,6,-1
17851,하삼동커피주감점,커피점/카페,비알콜 음료점업,부산광역시 사상구 백양대로494번길 10,사상구,128.998543846381,35.1543712876367,-1,-1
17852,상현달커피,커피점/카페,비알콜 음료점업,부산광역시 수영구 무학로9번길 47,수영구,129.115167195805,35.1639543016565,0,-1
17853,라오스커피,커피점/카페,비알콜 음료점업,부산광역시 수영구 연수로302번길 25,수영구,129.10313449701,35.1710952839206,-1,-1
17858,지오,커피점/카페,비알콜 음료점업,부산광역시 동래구 사직북로 4,동래구,129.06121734036,35.1960686507731,9,-1
17864,킹프레소,커피점/카페,비알콜 음료점업,부산광역시 북구 덕천로276번길 5,북구,129.035638050179,35.2086841974775,-1,-1
17865,영도커피랩,커피점/카페,비알콜 음료점업,부산광역시 영도구 와치로 271,영도구,129.070998731811,35.0752137314676,-1,-1
17916,잣품은그집호두과자,커피점/카페,비알콜 음료점업,부산광역시 동구 범일로 125,동구,129.058596888446,35.1413230864786,10,-1
17919,도노텀블,커피점/카페,비알콜 음료점업,부산광역시 사상구 백양대로 328,사상구,129.015725557947,35.1539039626001,-1,-1
17935,콩꼬물,커피점/카페,비알콜 음료점업,부산광역시 남구 수영로 182-1,남구,129.086588909663,35.1345943066742,0,-1
17994,디저트카페퓨어,커피점/카페,비알콜 음료점업,부산광역시 사하구 사하로166번길 3,사하구,128.994087816737,35.0965829164636,-1,-1
17995,오늘도달다,커피점/카페,비알콜 음료점업,부산광역시 금정구 수림로66번길 18,금정구,129.08541062006,35.240788053265,2,2
18001,양하당,커피점/카페,비알콜 음료점업,부산광역시 연제구 과정로278번길 34,연제구,129.0963568248,35.1895631043448,7,-1
18002,슬라임연구소위드브로쓰마카롱,커피점/카페,비알콜 음료점업,부산광역시 해운대구 센텀중앙로 145,해운대구,129.123619904461,35.1767749992096,5,-1
18031,카페,커피점/카페,비알콜 음료점업,부산광역시 연제구 과정로 78,연제구,129.107426158952,35.1783393144619,-1,-1
18051,미토리푸드,커피점/카페,비알콜 음료점업,부산광역시 해운대구 좌동로53번길 24,해운대구,129.172523724017,35.1711195219233,4,-1
18053,바로커피거제점,커피점/카페,비알콜 음료점업,부산광역시 연제구 월드컵대로 236,연제구,129.071656704262,35.1899464441722,-1,-1
18089,커피씨,커피점/카페,비알콜 음료점업,부산광역시 해운대구 선수촌로 108,해운대구,129.119910269885,35.2032558862806,-1,-1
18103,바스타커피,커피점/카페,비알콜 음료점업,부산광역시 동래구 아시아드대로 227,동래구,129.066893423527,35.2043836316044,9,-1
18105,커피하우스,커피점/카페,비알콜 음료점업,부산광역시 부산진구 황령대로17번길 29-7,부산진구,129.06069746436,35.1492910678549,10,3
18106,원다방,커피점/카페,비알콜 음료점업,부산광역시 사하구 다대낙조2길 50,사하구,128.961796362804,35.0524487524087,-1,-1
18107,커피드루아,커피점/카페,비알콜 음료점업,부산광역시 중구 충장대로9번길 31,중구,129.037731843488,35.1081247550422,1,1
18145,노포커피,커피점/카페,비알콜 음료점업,부산광역시 금정구 중앙대로 2205,금정구,129.093458246941,35.2812594099232,-1,-1
18152,곤,커피점/카페,비알콜 음료점업,부산광역시 남구 문현금융로 7-2,남구,129.064901721021,35.1434672452792,10,-1
18222,나우커피,커피점/카페,비알콜 음료점업,부산광역시 부산진구 동성로 73,부산진구,129.068173375204,35.1570134195155,10,3
18255,카페토스피아,커피점/카페,비알콜 음료점업,부산광역시 남구 수영로325번길 12,남구,129.102007316166,35.1387997858612,0,0
18264,댓커피이즈마인,커피점/카페,비알콜 음료점업,부산광역시 동래구 반송로251번길 16,동래구,129.099541034388,35.2034155277956,-1,-1
18303,카페해향,커피점/카페,비알콜 음료점업,부산광역시 영도구 해양로65번길 34,영도구,129.063387640692,35.0979058995198,-1,-1
18317,카페네스,커피점/카페,비알콜 음료점업,부산광역시 수영구 광안해변로 153,수영구,129.114529801263,35.1486095494632,0,-1
18323,가비커피,커피점/카페,비알콜 음료점업,부산광역시 북구 함박봉로140번길 21,북구,129.033762945958,35.2028502150786,-1,-1
18354,코페아커피,커피점/카페,비알콜 음료점업,부산광역시 금정구 부산대학로 53,금정구,129.085437977213,35.2312962944497,2,2
18370,마일로,커피점/카페,비알콜 음료점업,부산광역시 남구 분포로 145,남구,129.111239729405,35.1342445806076,0,-1
18386,대연1973,커피점/카페,비알콜 음료점업,부산광역시 남구 천제등로37번길 4,남구,129.089527284066,35.1327741535717,0,-1
18387,텐퍼센트커피동부,커피점/카페,비알콜 음료점업,부산광역시 해운대구 해운대로 428,해운대구,129.139861636856,35.1668973294386,5,-1
18396,달북재,커피점/카페,비알콜 음료점업,부산광역시 동래구 쇠미로129번길 80,동래구,129.058695080312,35.2056364064792,-1,-1
18439,화이트펜슬스터디카페,커피점/카페,비알콜 음료점업,부산광역시 수영구 연수로275번길 34,수영구,129.101085552102,35.1746383447059,-1,-1
18498,크루브,커피점/카페,비알콜 음료점업,부산광역시 부산진구 서전로68번길 55,부산진구,129.067306447117,35.1553444713066,10,3
18499,다온,커피점/카페,비알콜 음료점업,부산광역시 부산진구 중앙대로 672,부산진구,129.059626430918,35.1530231927924,10,3
18561,달다,커피점/카페,비알콜 음료점업,부산광역시 수영구 민락본동로 33,수영구,129.128170774881,35.1597145725027,0,-1
18573,나우커피,커피점/카페,비알콜 음료점업,부산광역시 동래구 쇠미로129번길 100,동래구,129.058267182315,35.2065144908889,-1,-1
18606,어랏커피,커피점/카페,비알콜 음료점업,부산광역시 기장군 정관읍 정관6로 39,기장군,129.178378333382,35.3194547952631,16,-1
18609,하이,커피점/카페,비알콜 음료점업,부산광역시 해운대구 재반로 230,해운대구,129.131320573213,35.1977235139832,-1,-1
18637,카페,커피점/카페,비알콜 음료점업,부산광역시 연제구 반송로 80,연제구,129.087938369174,35.1906305468955,8,-1
18641,카페드롭탑국제여객터미널,커피점/카페,비알콜 음료점업,부산광역시 동구 충장대로 206,동구,129.049829016062,35.1199551275438,-1,-1
18643,어벤더치커피,커피점/카페,비알콜 음료점업,부산광역시 기장군 일광면 해빛2로 24,기장군,129.22718806001,35.268673645627,-1,-1
18660,블루문,커피점/카페,비알콜 음료점업,부산광역시 동구 초량상로 120,동구,129.040212551541,35.1220661850158,1,-1
18665,카페테리아정,커피점/카페,비알콜 음료점업,부산광역시 부산진구 복지로13번길 53,부산진구,129.023429833176,35.1521174629965,-1,-1
18714,Adorable,커피점/카페,비알콜 음료점업,부산광역시 동래구 충렬대로 255,동래구,129.087193774393,35.2014989097498,2,-1
18786,타이지엔,커피점/카페,비알콜 음료점업,부산광역시 강서구 명지오션시티4로 82,강서구,128.90326435634,35.0816990398867,-1,-1
18801,고품격커피공장,커피점/카페,비알콜 음료점업,부산광역시 남구 분포로 115,남구,129.112748233323,35.1322116244133,-1,-1
18802,애플커피,커피점/카페,비알콜 음료점업,부산광역시 해운대구 재반로 98,해운대구,129.125818488726,35.1873368077993,-1,-1
18810,카페,커피점/카페,비알콜 음료점업,부산광역시 해운대구 우동1로 19,해운대구,129.15619098187,35.1634885890712,12,5
18818,브런치카페고희,커피점/카페,비알콜 음료점업,부산광역시 동래구 온천천로471번가길 54,동래구,129.102086025985,35.1926389019072,7,-1
18819,파로커피,커피점/카페,비알콜 음료점업,부산광역시 사하구 감내2로 133,사하구,129.008572364701,35.0980587828607,-1,-1
18914,CU,커피점/카페,비알콜 음료점업,부산광역시 서구 대티로 159,서구,129.010567872206,35.113113650417,18,-1
18933,써니스마일,커피점/카페,비알콜 음료점업,부산광역시 영도구 꿈나무길 37,영도구,129.045221013918,35.0898611062113,1,-1
19006,시대다방,커피점/카페,비알콜 음료점업,부산광역시 사하구 낙동대로 398,사하구,128.97473528072,35.1034915914421,11,-1
19010,디오,커피점/카페,비알콜 음료점업,부산광역시 사상구 새벽로167번길 81,사상구,128.978897020127,35.1570555350808,-1,-1
19018,테라로사,커피점/카페,비알콜 음료점업,부산광역시 해운대구 마린시티2로 38,해운대구,129.143357288326,35.1570573391424,15,-1
19022,카페,커피점/카페,비알콜 음료점업,부산광역시 사하구 하신번영로167번길 6,사하구,128.959748431793,35.0975626972283,-1,-1
19023,브론즈웨인커피,커피점/카페,비알콜 음료점업,부산광역시 해운대구 해운대해변로 332,해운대구,129.166485917485,35.1626507638182,12,-1
19024,이디야커피,커피점/카페,비알콜 음료점업,부산광역시 사상구 학장로 189,사상구,128.987241529499,35.1436651322998,-1,-1
19027,보리,커피점/카페,비알콜 음료점업,부산광역시 부산진구 황령대로8번길 7,부산진구,129.060826060933,35.1473609600545,10,3
19029,스타벅스,커피점/카페,비알콜 음료점업,부산광역시 중구 광복중앙로 8-2,중구,129.031389424812,35.1001113265537,1,1
19033,이디야커피,커피점/카페,비알콜 음료점업,부산광역시 남구 고동골로 29,남구,129.07048394609,35.1390102448798,-1,-1
19072,스무디킹,커피점/카페,비알콜 음료점업,부산광역시 부산진구 가야대로 772,부산진구,129.056437700996,35.1568098468641,10,3
19076,집커피,커피점/카페,비알콜 음료점업,부산광역시 북구 의성로33번길 237,북구,129.015278346233,35.2265058051552,-1,-1
19083,카페,커피점/카페,비알콜 음료점업,부산광역시 동래구 아시아드대로 155,동래구,129.065045849266,35.1982975180681,9,-1
19085,도노텀블,커피점/카페,비알콜 음료점업,부산광역시 사하구 제석로 89,사하구,128.976882138782,35.1078371249176,11,-1
19086,카페석산,커피점/카페,비알콜 음료점업,부산광역시 기장군 기장읍 석산길 35-4,기장군,129.211878585391,35.2073999737576,-1,-1
19120,마음연구소,커피점/카페,비알콜 음료점업,부산광역시 금정구 금강로279번길 6,금정구,129.085321469043,35.2332713588554,2,2
19125,무유인,커피점/카페,비알콜 음료점업,부산광역시 기장군 기장읍 연화2길 6,기장군,129.2255748304,35.2169878554989,-1,-1
19126,낫개코끼리찻집,커피점/카페,비알콜 음료점업,부산광역시 사하구 다송로72번길 39,사하구,128.982071268855,35.0603179182221,-1,-1
19170,다쿠다쿠,커피점/카페,비알콜 음료점업,부산광역시 연제구 안연로8번길 45,연제구,129.103457375338,35.1884890658237,7,-1
19180,코너커피,커피점/카페,비알콜 음료점업,부산광역시 강서구 명지국제5로148번길 28,강서구,128.924052900067,35.1067459558692,-1,-1
19181,해피버드데이,커피점/카페,비알콜 음료점업,부산광역시 금정구 부산대학로63번길 22,금정구,129.08394657406,35.2306696800443,2,2
19185,삼월삼일,커피점/카페,비알콜 음료점업,부산광역시 금정구 범어사로 331,금정구,129.076607682796,35.2796618886708,-1,-1
19191,공차,커피점/카페,비알콜 음료점업,부산광역시 금정구 중앙대로1841번길 24,금정구,129.090620427873,35.2499622993115,2,-1
19218,투더디프런트,커피점/카페,비알콜 음료점업,부산광역시 기장군 정관읍 정관로 583,기장군,129.177787522994,35.321182142724,16,-1
19231,카페,커피점/카페,비알콜 음료점업,부산광역시 기장군 기장읍 차성동로 58,기장군,129.217248418143,35.2426706328017,6,-1
19272,커피빈,커피점/카페,비알콜 음료점업,부산광역시 중구 충장대로 11,중구,129.037757663565,35.1058349736802,1,1
19275,스무디킹,커피점/카페,비알콜 음료점업,부산광역시 남구 전포대로 133,남구,129.065458333468,35.1482848068035,10,3
19286,컴포,커피점/카페,비알콜 음료점업,부산광역시 서구 동대로 28-6,서구,129.018372048895,35.1187722439205,-1,-1
19323,투앤써티,커피점/카페,비알콜 음료점업,부산광역시 해운대구 양운로 104,해운대구,129.174299961521,35.1724994514092,4,-1
19338,92발메인스트릿,커피점/카페,비알콜 음료점업,부산광역시 동래구 온천천로431번길 9,동래구,129.10003977979,35.1923510365001,7,-1
19348,연지커피,커피점/카페,비알콜 음료점업,부산광역시 부산진구 새싹로 196,부산진구,129.049421666326,35.1736998125079,-1,-1
19354,캔버스다락,커피점/카페,비알콜 음료점업,부산광역시 영도구 흰여울길 247,영도구,129.045184072062,35.0783685198962,-1,-1
19355,문라이크,커피점/카페,비알콜 음료점업,부산광역시 부산진구 황령대로64번길 12,부산진구,129.066609198453,35.1490138235789,10,3
19359,게으른고양이,커피점/카페,비알콜 음료점업,부산광역시 영도구 태종로 522,영도구,129.074264807087,35.0843070333622,-1,-1
19402,바스타커피,커피점/카페,비알콜 음료점업,부산광역시 부산진구 중앙대로 921,부산진구,129.070560424578,35.1724962600515,8,-1
19403,화이트펜슬,커피점/카페,비알콜 음료점업,부산광역시 금정구 금강로 528,금정구,129.088076511871,35.2544740499932,-1,-1
19404,카페,커피점/카페,비알콜 음료점업,부산광역시 기장군 기장읍 차성동로 110-8,기장군,129.217353305391,35.2474828558718,6,-1
19431,카페부스,커피점/카페,비알콜 음료점업,부산광역시 중구 남포길 10,중구,129.029849036806,35.0988534417533,1,1
19461,스무디킹,커피점/카페,비알콜 음료점업,부산광역시 부산진구 엄광로 131,부산진구,129.029399921785,35.1477311719316,-1,-1
19462,스무디킹,커피점/카페,비알콜 음료점업,부산광역시 강서구 낙동남로604번길 2-12,강서구,128.88575949488,35.1128188679767,-1,-1
19509,위치커피,커피점/카페,비알콜 음료점업,부산광역시 부산진구 전포대로306번길 46,부산진구,129.066988999139,35.16633522401,8,-1
19515,복합성,커피점/카페,비알콜 음료점업,부산광역시 남구 진남로36번길 2,남구,129.091597168399,35.1382359917814,0,-1
19517,앵커619,커피점/카페,비알콜 음료점업,부산광역시 남구 용소로8번길 48,남구,129.097851475008,35.1357547492177,0,0
19520,플랜트스터디카페,커피점/카페,비알콜 음료점업,부산광역시 부산진구 동평로 364,부산진구,129.06492297856,35.1745740789989,8,-1
19563,우리카페,커피점/카페,비알콜 음료점업,부산광역시 부산진구 범양로45번가길 5-1,부산진구,129.062888450161,35.1692376933229,-1,-1
19630,솔잎,커피점/카페,비알콜 음료점업,부산광역시 동구 중앙대로 531-1,동구,129.056296209143,35.1407662703389,10,-1
19667,라곰,커피점/카페,비알콜 음료점업,부산광역시 해운대구 우동1로20번길 19,해운대구,129.157661510623,35.1642407192821,12,5
19671,뉴욕보틀,커피점/카페,비알콜 음료점업,부산광역시 부산진구 서전로 38,부산진구,129.063988174393,35.1575910817606,10,3
19672,오소39,커피점/카페,비알콜 음료점업,부산광역시 부산진구 서전로38번길 41,부산진구,129.063998565684,35.155860318015,10,3
19673,텐퍼센트커피,커피점/카페,비알콜 음료점업,부산광역시 부산진구 신천대로62번길 60,부산진구,129.058610290522,35.1533746046684,10,3
19680,브라운핸즈,커피점/카페,비알콜 음료점업,부산광역시 기장군 기장읍 기장해안로 147,기장군,129.212806182429,35.1922296432292,-1,-1
19684,C27,커피점/카페,비알콜 음료점업,부산광역시 해운대구 센텀4로 15,해운대구,129.128311184485,35.1698808784044,5,4
19685,온타임,커피점/카페,비알콜 음료점업,부산광역시 북구 산성로 23-9,북구,129.015862695867,35.2398954909594,17,-1
19719,무한스터디카페,커피점/카페,비알콜 음료점업,부산광역시 사하구 다대낙조2길 85,사하구,128.961440255002,35.0529293260335,-1,-1
19720,카페,커피점/카페,비알콜 음료점업,부산광역시 강서구 명지국제2로 29,강서구,128.906812700015,35.0941661907132,-1,-1
19735,투썸플레이스부산센텀CGV점,커피점/카페,비알콜 음료점업,부산광역시 해운대구 센텀남대로 35,해운대구,129.129106584707,35.1686565992762,5,4
19792,할매팥빙수,커피점/카페,비알콜 음료점업,부산광역시 남구 천제등로28번길 13,남구,129.087821845628,35.1324199027376,0,-1
19811,MYGRANNY,커피점/카페,비알콜 음료점업,부산광역시 사상구 백양대로950번나길 93,사상구,128.994557738547,35.1947685863129,-1,-1
19827,백설커피숍,커피점/카페,비알콜 음료점업,부산광역시 수영구 연수로 365,수영구,129.110376700912,35.1708758780919,0,-1
19840,카페,커피점/카페,비알콜 음료점업,부산광역시 영도구 흰여울길 347,영도구,129.046333596623,35.0773670617702,-1,-1
19841,달콤,커피점/카페,비알콜 음료점업,부산광역시 부산진구 동천로95번길 13,부산진구,129.061523436812,35.1571169367605,10,3
19851,월월월앳더모먼츠,커피점/카페,비알콜 음료점업,부산광역시 연제구 쌍미천로84번길 6,연제구,129.08825391863,35.1805321962261,-1,-1
19857,하트너카페,커피점/카페,비알콜 음료점업,부산광역시 연제구 월드컵대로 160,연제구,129.079207808035,35.1872112870044,8,-1
20000,컴포즈커피,커피점/카페,비알콜 음료점업,부산광역시 남구 문현로 75,남구,129.077213107968,35.1433674392518,-1,-1
20016,스타벅스,커피점/카페,비알콜 음료점업,부산광역시 강서구 르노삼성대로 620,강서구,128.929512978109,35.1026568756313,-1,-1
20017,놀탐카페,커피점/카페,비알콜 음료점업,부산광역시 부산진구 동천로 16,부산진구,129.063035553316,35.1501719704832,10,3
20018,비허밍스터디카페,커피점/카페,비알콜 음료점업,부산광역시 북구 화명대로 40,북구,129.012389117368,35.2344531877609,17,-1
20020,엔씨커피,커피점/카페,비알콜 음료점업,부산광역시 금정구 부곡로 25-4,금정구,129.087474428601,35.2192536111063,2,-1
20027,그런날,커피점/카페,비알콜 음료점업,부산광역시 사하구 다대로 720,사하구,128.962965656053,35.0493386023875,-1,-1
20028,비커피,커피점/카페,비알콜 음료점업,부산광역시 연제구 연수로 104,연제구,129.082143400879,35.1750884843362,-1,-1
20029,보드레,커피점/카페,비알콜 음료점업,부산광역시 동래구 온천천로 449-5,동래구,129.102206576264,35.1918085324668,7,-1
20057,비씨팔백,커피점/카페,비알콜 음료점업,부산광역시 사하구 윤공단로 123,사하구,128.974584213218,35.0612887313591,-1,-1
20060,시작스터디카페사직직영점,커피점/카페,비알콜 음료점업,부산광역시 동래구 사직로70번길 56,동래구,129.057694137534,35.1978932344715,9,-1
20064,이영희,커피점/카페,비알콜 음료점업,부산광역시 해운대구 해운대해변로 163,해운대구,129.150748800901,35.158186196302,15,-1
20134,베네프코리아,커피점/카페,비알콜 음료점업,부산광역시 해운대구 센텀동로 99,해운대구,129.125873190846,35.1761771902628,5,4
20179,카페달리스,커피점/카페,비알콜 음료점업,부산광역시 해운대구 달맞이길117번길 42,해운대구,129.17576150757,35.1596406240416,-1,-1
20180,이디야커피,커피점/카페,비알콜 음료점업,부산광역시 부산진구 성지로 104,부산진구,129.05257310967,35.1797207965237,-1,-1
20181,이디야커피,커피점/카페,비알콜 음료점업,부산광역시 금정구 식물원로44번길 40,금정구,129.083666527373,35.2269585039128,2,2
20191,뚜벅스,커피점/카페,비알콜 음료점업,부산광역시 중구 비프광장로 33,중구,129.028775763908,35.0989797359877,1,1
20192,도듀,커피점/카페,비알콜 음료점업,부산광역시 부산진구 동성로25번길 29,부산진구,129.066722324647,35.1526364255571,10,3
20197,메가엠지씨커피,커피점/카페,비알콜 음료점업,부산광역시 동래구 아시아드대로 145,동래구,129.065307757815,35.197330731368,9,-1
20198,도레도레,커피점/카페,비알콜 음료점업,부산광역시 해운대구 청사포로 137,해운대구,129.193517117161,35.1609092048685,-1,-1
20213,드롭탑부산화명점,커피점/카페,비알콜 음료점업,부산광역시 북구 금곡대로303번길 25,북구,129.012049797805,35.2354385356718,17,-1
20248,시너지플레이스스터디카페,커피점/카페,비알콜 음료점업,부산광역시 부산진구 새싹로 183,부산진구,129.049531148133,35.1719681932046,-1,-1
20249,눈카페,커피점/카페,비알콜 음료점업,부산광역시 중구 중앙대로41번길 3-1,중구,129.036030470714,35.1010993557574,1,1
20250,할리스커피부산달맞이점,커피점/카페,비알콜 음료점업,부산광역시 해운대구 달맞이길 199,해운대구,129.183009958162,35.1591824662882,-1,-1
20254,투썸플레이스,커피점/카페,비알콜 음료점업,부산광역시 사하구 다대로 655,사하구,128.969780435212,35.0481395200078,-1,-1
20268,리케이온,커피점/카페,비알콜 음료점업,부산광역시 영도구 중리북로22번길 32,영도구,129.068371212087,35.0713158011038,-1,-1
20366,나우커피,커피점/카페,비알콜 음료점업,부산광역시 사상구 엄궁로179번길 7,사상구,128.975159699867,35.1289889617478,-1,-1
20376,비어드파파,커피점/카페,비알콜 음료점업,부산광역시 강서구 명지국제6로 168,강서구,128.918174282154,35.0931251890339,13,-1
20378,도타이커피앤와플,커피점/카페,비알콜 음료점업,부산광역시 영도구 와치로 266,영도구,129.069499558016,35.0754432981328,-1,-1
20392,스펠커피,커피점/카페,비알콜 음료점업,부산광역시 부산진구 전포대로210번길 20,부산진구,129.066670059628,35.155359089687,10,3
20393,MIRO,커피점/카페,비알콜 음료점업,부산광역시 기장군 일광면 문오성길 56,기장군,129.25900017486,35.2825250734347,-1,-1
20397,온지라운지,커피점/카페,비알콜 음료점업,부산광역시 동구 중앙대로196번길 10,동구,129.040354654467,35.1142588428362,1,-1
20441,유니크&카페소울,커피점/카페,비알콜 음료점업,부산광역시 사상구 냉정로 114,사상구,129.012398971006,35.1493887606122,-1,-1
20443,카페,커피점/카페,비알콜 음료점업,부산광역시 부산진구 전포대로275번길 17,부산진구,129.064398941024,35.1613192343978,10,3
20499,진선진미베이커리,커피점/카페,비알콜 음료점업,부산광역시 강서구 범방3로 100,강서구,128.883663427107,35.1503238900541,-1,-1
20546,비부스,커피점/카페,비알콜 음료점업,부산광역시 강서구 유통단지1로 41,강서구,128.955726240678,35.1673091829512,-1,-1
20565,킹프레소,커피점/카페,비알콜 음료점업,부산광역시 금정구 중앙대로1945번길 10,금정구,129.090806121755,35.258082015788,-1,-1
20574,카페코슬리,커피점/카페,비알콜 음료점업,부산광역시 강서구 명지오션시티8로30번길 12-7,강서구,128.910375709292,35.0861439335105,-1,-1
20575,스탠다드커피,커피점/카페,비알콜 음료점업,부산광역시 연제구 배산로 24,연제구,129.094732918801,35.1740919969669,-1,-1
20579,프띠르,커피점/카페,비알콜 음료점업,부산광역시 부산진구 중앙대로692번길 45-7,부산진구,129.061603558161,35.1548357122957,10,3
20580,노베이커노베이커스,커피점/카페,비알콜 음료점업,부산광역시 부산진구 전포대로 227,부산진구,129.064979339374,35.1570054824244,10,3
20581,엔제리너스,커피점/카페,비알콜 음료점업,부산광역시 북구 만덕대로 37,북구,129.009092650822,35.2113330809305,3,-1
20586,카페그린듯,커피점/카페,비알콜 음료점업,부산광역시 중구 대청로 90,중구,129.029646098694,35.1027762700974,1,1
20587,그린터틀,커피점/카페,비알콜 음료점업,부산광역시 영도구 동삼로 55-1,영도구,129.070062990996,35.0782867611764,-1,-1
20595,커피토스피아부산토성점,커피점/카페,비알콜 음료점업,부산광역시 서구 구덕로148번길 37,서구,129.022810538933,35.0982099277951,1,1
20598,이디야커피,커피점/카페,비알콜 음료점업,부산광역시 동래구 충렬대로237번길 143,동래구,129.082262536667,35.207257854449,2,-1
20599,브레이크인커피,커피점/카페,비알콜 음료점업,부산광역시 기장군 정관읍 병산로 117,기장군,129.177841079474,35.3407951048319,-1,-1
20600,올차,커피점/카페,비알콜 음료점업,부산광역시 사상구 새벽로 225,사상구,128.984084544928,35.1612771290431,14,-1
20601,VIVID,커피점/카페,비알콜 음료점업,부산광역시 사하구 승학로 32,사하구,128.972216220042,35.1065766060571,11,-1
20607,카페비치다,커피점/카페,비알콜 음료점업,부산광역시 기장군 일광면 일광로 648,기장군,129.258248449203,35.3000101037399,-1,-1
20609,카페드팽,커피점/카페,비알콜 음료점업,부산광역시 금정구 금강로 247-7,금정구,129.084281690938,35.2302610579591,2,2
20611,카페메리골드,커피점/카페,비알콜 음료점업,부산광역시 기장군 기장읍 차성로 426,기장군,129.216683792061,35.2541506555782,-1,-1
20634,초심스터디카페,커피점/카페,비알콜 음료점업,부산광역시 금정구 부산대학로 49,금정구,129.085688936787,35.2311678506806,2,2
20766,스타벅스,커피점/카페,비알콜 음료점업,부산광역시 서구 송도해변로 97,서구,129.017866684954,35.0772397496774,-1,-1
20773,JM커피,커피점/카페,비알콜 음료점업,부산광역시 기장군 정관읍 곰내길 634,기장군,129.172023500479,35.3150007606242,-1,-1
20778,요거프레소,커피점/카페,비알콜 음료점업,부산광역시 해운대구 해운대로 814,해운대구,129.177695457434,35.1696902413478,4,-1
20779,쥬씨,커피점/카페,비알콜 음료점업,부산광역시 강서구 유통단지1로 50,강서구,128.954202890802,35.1703408832555,-1,-1
20780,첫번째매듭,커피점/카페,비알콜 음료점업,부산광역시 부산진구 전포대로224번길 25,부산진구,129.066971864543,35.156618380628,10,3
20784,오드이븐,커피점/카페,비알콜 음료점업,부산광역시 동구 중앙대로226번길 7-2,동구,129.04213300958,35.116938753287,1,-1
20787,흰여울비치,커피점/카페,비알콜 음료점업,부산광역시 영도구 절영로 236,영도구,129.046638282352,35.0771841515946,-1,-1
20788,커피베이,커피점/카페,비알콜 음료점업,부산광역시 금정구 중앙대로 1799,금정구,129.092673175319,35.2448960767976,2,-1
20789,1984나폴리,커피점/카페,비알콜 음료점업,부산광역시 기장군 철마면 여락송정로 334-15,기장군,129.112413705957,35.3040894779749,-1,-1
20808,우리동네다방,커피점/카페,비알콜 음료점업,부산광역시 사상구 새벽로202번길 32,사상구,128.985754508617,35.1586765377002,14,-1
20813,조아컴퍼니,커피점/카페,비알콜 음료점업,부산광역시 연제구 과정로 314,연제구,129.093360477938,35.1896532900077,7,-1
20859,구디너프,커피점/카페,비알콜 음료점업,부산광역시 금정구 금정로52번길 21,금정구,129.087408389745,35.2291243132681,2,2
20882,이나모로에스프레소,커피점/카페,비알콜 음료점업,부산광역시 부산진구 가야대로 772,부산진구,129.056437700996,35.1568098468641,10,3
20936,시크릿서비스,커피점/카페,비알콜 음료점업,부산광역시 부산진구 중앙대로692번길 46-10,부산진구,129.061572243583,35.1541148726858,10,3
20946,볼피,커피점/카페,비알콜 음료점업,부산광역시 중구 용두산길 12,중구,129.031422642896,35.1018777942164,1,1
20947,벨렘351,커피점/카페,비알콜 음료점업,부산광역시 강서구 대저로299번길 6,강서구,128.984547312326,35.2114900957287,-1,-1
20954,멘토즈스터디카페,커피점/카페,비알콜 음료점업,부산광역시 연제구 중앙대로1043번길 34,연제구,129.076442447675,35.182332354557,8,-1
20955,VREWCOFFEE,커피점/카페,비알콜 음료점업,부산광역시 해운대구 우동1로20번가길 28,해운대구,129.158908768709,35.1662749281794,12,5
20956,카페051,커피점/카페,비알콜 음료점업,부산광역시 동구 중앙대로251번길 46,동구,129.039585390788,35.1201966548275,1,-1
20960,SOL,커피점/카페,비알콜 음료점업,부산광역시 강서구 화전산단4로 28,강서구,128.881097240118,35.1107795894544,-1,-1
20965,커피브레이크,커피점/카페,비알콜 음료점업,부산광역시 해운대구 재반로 228-2,해운대구,129.131308718758,35.1976605281968,-1,-1
20981,제이스커피,커피점/카페,비알콜 음료점업,부산광역시 기장군 일광면 이천8길 132-20,기장군,129.234352175464,35.2772537919878,-1,-1
20982,카페,커피점/카페,비알콜 음료점업,부산광역시 동래구 명륜로 151,동래구,129.0817032151,35.2073169356289,2,-1
21030,TOMNTOMSCOFFEE,커피점/카페,비알콜 음료점업,부산광역시 동래구 사직북로 18,동래구,129.060763725265,35.1974968157284,9,-1
21085,학생회관커피점,커피점/카페,비알콜 음료점업,부산광역시 사하구 낙동대로550번길 37,사하구,128.968105067963,35.118823576058,-1,-1
21124,투썸플레이스,커피점/카페,비알콜 음료점업,부산광역시 강서구 거가대로 2571,강서구,128.809618031719,35.0230282973339,-1,-1
21132,그린에비뉴커피,커피점/카페,비알콜 음료점업,부산광역시 동래구 사직로70번길 54,동래구,129.057658860937,35.197713265272,9,-1
21135,COFFEERESTUDIO,커피점/카페,비알콜 음료점업,부산광역시 연제구 중앙대로 999,연제구,129.074511795555,35.1791225313408,8,-1
21136,크레핏,커피점/카페,비알콜 음료점업,부산광역시 해운대구 센텀남대로 35,해운대구,129.129106584707,35.1686565992762,5,4
21145,베러먼데이일광,커피점/카페,비알콜 음료점업,부산광역시 기장군 일광면 해빛4로 1,기장군,129.221855637599,35.2678082309965,-1,-1
21168,나누다,커피점/카페,비알콜 음료점업,부산광역시 동래구 명안로71번길 3,동래구,129.103993164647,35.2029333401644,-1,-1
21183,gouncoffee,커피점/카페,비알콜 음료점업,부산광역시 동래구 명안로85번길 37,동래구,129.10250783982,35.2043530283174,-1,-1
21194,커피앤다함께,커피점/카페,비알콜 음료점업,부산광역시 동래구 반송로 269,동래구,129.100823902173,35.204079907562,-1,-1
21204,카페숲2호점,커피점/카페,비알콜 음료점업,부산광역시 사하구 낙동남로1233번길 25,사하구,128.944713467894,35.1100932038263,-1,-1
21299,할리스커피,커피점/카페,비알콜 음료점업,부산광역시 부산진구 동천로 4,부산진구,129.064002929959,35.1494513789469,10,3
21300,삶과미래,커피점/카페,비알콜 음료점업,부산광역시 강서구 공항로533번길 242,강서구,128.942808648367,35.1551693580206,-1,-1
21301,화이트스톤,커피점/카페,비알콜 음료점업,부산광역시 부산진구 가야대로784번길 48,부산진구,129.057176165966,35.1553521631623,10,3
21302,카페드팽,커피점/카페,비알콜 음료점업,부산광역시 금정구 금강로 271-38,금정구,129.084796311717,35.2326090462979,2,2
21303,FORS2007,커피점/카페,비알콜 음료점업,부산광역시 해운대구 송정해변로 32,해운대구,129.202525538975,35.1808396632291,-1,-1
21309,카페여백,커피점/카페,비알콜 음료점업,부산광역시 기장군 정관읍 방곡5로 2-26,기장군,129.185812645005,35.3232218867569,-1,-1
21311,포에트리인모션,커피점/카페,비알콜 음료점업,부산광역시 북구 만덕2로29번길 11-3,북구,129.038231620335,35.2114022012107,-1,-1
21312,카페051,커피점/카페,비알콜 음료점업,부산광역시 수영구 광안해변로 165,수영구,129.115048090404,35.1495963075316,0,-1
21317,화봉커피,커피점/카페,비알콜 음료점업,부산광역시 기장군 기장읍 연화1길 55,기장군,129.223093146168,35.2148316470321,-1,-1
21318,세터에스프레소,커피점/카페,비알콜 음료점업,부산광역시 부산진구 서전로57번길 38,부산진구,129.06621957609,35.1595274841027,10,3
21406,조이하우스,커피점/카페,비알콜 음료점업,부산광역시 영도구 전망로 120,영도구,129.087929378238,35.0554665399431,-1,-1
21472,미엘,커피점/카페,비알콜 음료점업,부산광역시 남구 못골로 97-5,남구,129.092982057754,35.1359429875148,0,0
21484,얼루어커피,커피점/카페,비알콜 음료점업,부산광역시 해운대구 센텀동로 99,해운대구,129.125873190846,35.1761771902628,5,4
21485,셀독24스터디카페,커피점/카페,비알콜 음료점업,부산광역시 남구 수영로 300,남구,129.099246723487,35.1366975760403,0,0
21486,카페브루,커피점/카페,비알콜 음료점업,부산광역시 부산진구 대학로36번길 10,부산진구,129.035497591347,35.1526008356845,-1,-1
21490,설빙,커피점/카페,비알콜 음료점업,부산광역시 연제구 월드컵대로 141,연제구,129.080588231794,35.1861533704032,8,-1
21546,밸라다,커피점/카페,비알콜 음료점업,부산광역시 수영구 연수로 262-1,수영구,129.099438795382,35.1730037669623,-1,-1
21563,운죽정북카페,커피점/카페,비알콜 음료점업,부산광역시 금정구 산성로 872,금정구,129.067595840931,35.2353849955517,-1,-1
21580,아마스빈부산대1호점,커피점/카페,비알콜 음료점업,부산광역시 금정구 부산대학로63번길 11,금정구,129.084216312742,35.2311269676073,2,2
21662,로보티머,커피점/카페,비알콜 음료점업,부산광역시 동래구 충렬대로238번길 37,동래구,129.085062289297,35.199769344858,2,-1
21668,이디야커피,커피점/카페,비알콜 음료점업,부산광역시 기장군 일광면 기장대로 673,기장군,129.221878823884,35.2547112344882,-1,-1
21669,베러먼데이,커피점/카페,비알콜 음료점업,부산광역시 사상구 광장로 83,사상구,128.985963072455,35.1623164918668,14,-1
21673,몽썸,커피점/카페,비알콜 음료점업,부산광역시 강서구 가락대로 1262,강서구,128.901493087199,35.1777485236417,-1,-1
21674,컵넛,커피점/카페,비알콜 음료점업,부산광역시 금정구 금정로149번안길 18,금정구,129.086989956659,35.2372855473999,2,2
21680,데일리오아시스,커피점/카페,비알콜 음료점업,부산광역시 수영구 민락로33번길 20,수영구,129.120731762935,35.1575121260276,0,-1
21689,오끌,커피점/카페,비알콜 음료점업,부산광역시 부산진구 서전로68번길 39,부산진구,129.067326367803,35.1560293535397,10,3
21735,스타벅스,커피점/카페,비알콜 음료점업,부산광역시 북구 금곡대로285번길 5,북구,129.013214567487,35.2336891168998,17,-1
21751,카페미소,커피점/카페,비알콜 음료점업,부산광역시 기장군 기장읍 기장해안로 128,기장군,129.213675065694,35.1901117298061,-1,-1
21752,카페,커피점/카페,비알콜 음료점업,부산광역시 금정구 중앙대로 1817-5,금정구,129.092188115165,35.2464147673416,2,-1
21753,한잔의풀내음,커피점/카페,비알콜 음료점업,부산광역시 수영구 광일로29번가길 16,수영구,129.109656651092,35.1615080628065,0,-1
21774,작심스터디카페,커피점/카페,비알콜 음료점업,부산광역시 남구 용주로6번길 30,남구,129.111251209346,35.1116646058271,-1,-1
21778,청다방,커피점/카페,비알콜 음료점업,부산광역시 사하구 다대로134번길 44,사하구,128.9768967612,35.0915936256648,-1,-1
21798,그린다방,커피점/카페,비알콜 음료점업,부산광역시 해운대구 선수촌로 158-1,해운대구,129.122665547675,35.2071603833592,-1,-1
21801,러브액츄얼리,커피점/카페,비알콜 음료점업,부산광역시 수영구 광안로41번길 7,수영구,129.116723939785,35.1557824169444,0,-1
21958,프레쉬위크,커피점/카페,비알콜 음료점업,부산광역시 부산진구 전포대로300번길 9,부산진구,129.065732322941,35.1642460462692,10,3
21966,카페051,커피점/카페,비알콜 음료점업,부산광역시 수영구 수영로741번길 9,수영구,129.120655955578,35.16878915634,0,-1
21987,카페페르마타,커피점/카페,비알콜 음료점업,부산광역시 금정구 가마실로 21,금정구,129.091263447271,35.2249613043213,2,2
22001,카페시장,커피점/카페,비알콜 음료점업,부산광역시 해운대구 좌동로 152,해운대구,129.181140605261,35.1748846862252,4,-1
22023,예원당,커피점/카페,비알콜 음료점업,부산광역시 부산진구 새싹로 33,부산진구,129.056661427994,35.1605306462844,10,3
22094,카페아방가르드,커피점/카페,비알콜 음료점업,부산광역시 사하구 옥천로 121,사하구,129.010009303898,35.0971814716599,-1,-1
22146,카페,커피점/카페,비알콜 음료점업,부산광역시 금정구 금강로335번길 10-2,금정구,129.085948113493,35.2382503602583,2,2
22149,화이트펜슬스터디카페,커피점/카페,비알콜 음료점업,부산광역시 사하구 다대로 702,사하구,128.965109861227,35.0489790254983,-1,-1
22150,원더러스트,커피점/카페,비알콜 음료점업,부산광역시 금정구 장전온천천로 27,금정구,129.088519164672,35.2275729713322,2,2
22176,커피하우스,커피점/카페,비알콜 음료점업,부산광역시 해운대구 해운대로161번길 12,해운대구,129.124762657456,35.1840205203839,-1,-1
22230,명신커피숍,커피점/카페,비알콜 음료점업,부산광역시 부산진구 새싹로8번길 26,부산진구,129.059686878002,35.1593774807165,10,3
22258,고품격커피공장,커피점/카페,비알콜 음료점업,부산광역시 연제구 신촌로 12,연제구,129.077379249283,35.1826034548498,8,-1
22281,쿠즈베리,커피점/카페,비알콜 음료점업,부산광역시 금정구 중앙대로1873번길 17,금정구,129.090269680718,35.251669059857,2,-1
22283,청솔로9,커피점/카페,비알콜 음료점업,부산광역시 사하구 낙동대로535번길 49,사하구,128.961817162496,35.1112116677328,11,-1
22337,노스커피리마스터센텀점,커피점/카페,비알콜 음료점업,부산광역시 해운대구 센텀동로 9,해운대구,129.132482667416,35.1698870198936,5,4
22338,핍엠마,커피점/카페,비알콜 음료점업,부산광역시 부산진구 서전로68번길 78,부산진구,129.067139037835,35.1542913174464,10,3
22339,일리카페,커피점/카페,비알콜 음료점업,부산광역시 수영구 광안해변로 189,수영구,129.116456822421,35.1514942765095,0,-1
22340,TTOK,커피점/카페,비알콜 음료점업,부산광역시 동구 고관로29번길 12,동구,129.042003851256,35.1223031904346,1,-1
22348,이룸스터디룸,커피점/카페,비알콜 음료점업,부산광역시 부산진구 중앙대로 683-1,부산진구,129.05891207692,35.1537956221469,10,3
22356,텐퍼센트커피명지국제,커피점/카페,비알콜 음료점업,부산광역시 강서구 명지국제8로 258,강서구,128.920879218616,35.0976478034746,13,-1
22381,빡스,커피점/카페,비알콜 음료점업,부산광역시 해운대구 반송순환로 143-1,해운대구,129.153012489955,35.2236587836918,-1,-1
22410,코코브루니,커피점/카페,비알콜 음료점업,부산광역시 부산진구 가야대로 772,부산진구,129.056437700996,35.1568098468641,10,3
22464,체크인부산,커피점/카페,비알콜 음료점업,부산광역시 중구 광복로97번길 14,중구,129.035444341812,35.0998514130183,1,1
22538,거루캥테이블,커피점/카페,비알콜 음료점업,부산광역시 해운대구 송정중앙로5번길 79,해운대구,129.203844954841,35.1869288525522,-1,-1
22556,언니네세탁소,커피점/카페,비알콜 음료점업,부산광역시 중구 흑교로71번길 3-2,중구,129.023580605717,35.105414659705,1,1
22557,카페코지,커피점/카페,비알콜 음료점업,부산광역시 동래구 아시아드대로255번길 14,동래구,129.067842234348,35.2072326563411,-1,-1
22613,컴포즈커피,커피점/카페,비알콜 음료점업,부산광역시 사하구 다대낙조2길 85,사하구,128.961440255002,35.0529293260335,-1,-1
22617,카페,커피점/카페,비알콜 음료점업,부산광역시 영도구 절영로 194,영도구,129.043569833637,35.0799057960733,-1,-1
22625,카페빛,커피점/카페,비알콜 음료점업,부산광역시 남구 못골로53번길 50,남구,129.088849886095,35.1379362068171,0,-1
22660,커피사우르스,커피점/카페,비알콜 음료점업,부산광역시 사하구 낙동대로 443,사하구,128.969999017318,35.1046022541795,11,-1
22672,카페051,커피점/카페,비알콜 음료점업,부산광역시 수영구 광안해변로255번길 12,수영구,129.121760304853,35.1556818071858,0,-1
22707,폴바셋해운대아이파크점,커피점/카페,비알콜 음료점업,부산광역시 해운대구 마린시티2로 38,해운대구,129.143357288326,35.1570573391424,15,-1
22708,해거름커피숍,커피점/카페,비알콜 음료점업,부산광역시 서구 충무대로276번길 14,서구,129.025061406256,35.0949007923958,1,1
22719,텐퍼센트커피,커피점/카페,비알콜 음료점업,부산광역시 해운대구 좌동순환로433번길 30-1,해운대구,129.179875433373,35.1625391236548,4,-1
22723,쿠오리노,커피점/카페,비알콜 음료점업,부산광역시 중구 대청로126번길 35,중구,129.034489538506,35.0998054794541,1,1
22726,요거프레소,커피점/카페,비알콜 음료점업,부산광역시 강서구 공항진입로 108,강서구,128.945755851608,35.17273274068,-1,-1
22727,카페S,커피점/카페,비알콜 음료점업,부산광역시 해운대구 청사포로 127,해운대구,129.192714268556,35.1607999327536,-1,-1
22736,카페베네,커피점/카페,비알콜 음료점업,부산광역시 부산진구 중앙대로666번길 50,부산진구,129.060324769688,35.1518633004325,10,3
22757,카페,커피점/카페,비알콜 음료점업,부산광역시 연제구 연수로 218,연제구,129.094559933817,35.1734716036522,-1,-1
22779,카페가온비,커피점/카페,비알콜 음료점업,부산광역시 연제구 중앙대로 999,연제구,129.074511795555,35.1791225313408,8,-1
22805,이디야커피,커피점/카페,비알콜 음료점업,부산광역시 남구 수영로 261,남구,129.093451890797,35.1382553260308,0,0
22806,일리터커피,커피점/카페,비알콜 음료점업,부산광역시 부산진구 서면로 44,부산진구,129.058067069879,35.1546503137232,10,3
22815,커피하우스,커피점/카페,비알콜 음료점업,부산광역시 영도구 남항로 34,영도구,129.039988031166,35.0888514586479,1,-1
22893,떡&김카페,커피점/카페,비알콜 음료점업,부산광역시 강서구 명지국제7로 133,강서구,128.91655739138,35.0966258962917,13,-1
22898,하삼동커피,커피점/카페,비알콜 음료점업,부산광역시 연제구 연수로148번길 1,연제구,129.087107137845,35.174386024179,-1,-1
22913,TIVOLI,커피점/카페,비알콜 음료점업,부산광역시 동래구 충렬대로107번길 45,동래구,129.072915158663,35.208828328169,-1,-1
22930,토즈모임센터부산대점,커피점/카페,비알콜 음료점업,부산광역시 금정구 금정로 71,금정구,129.086290913862,35.2310002015706,2,2
22936,디저트카페153,커피점/카페,비알콜 음료점업,부산광역시 강서구 명지국제7로 133,강서구,128.915943751551,35.0966756041507,13,-1
22937,댕댕월드,커피점/카페,비알콜 음료점업,부산광역시 남구 이기대공원로 57-73,남구,129.118037614571,35.1282509091021,-1,-1
22957,고양이집사,커피점/카페,비알콜 음료점업,부산광역시 금정구 중앙대로2001번길 47-4,금정구,129.089106392938,35.2632802289961,-1,-1
22965,가든,커피점/카페,비알콜 음료점업,부산광역시 해운대구 송정중앙로39번길 13,해운대구,129.204859067404,35.1827363969387,-1,-1
22969,스타벅스센텀그린타워점,커피점/카페,비알콜 음료점업,부산광역시 해운대구 센텀중앙로 78,해운대구,129.127026686657,35.1746431258659,5,4
23010,설빙,커피점/카페,비알콜 음료점업,부산광역시 강서구 공항진입로 108,강서구,128.945755851608,35.17273274068,-1,-1
23041,스타벅스,커피점/카페,비알콜 음료점업,부산광역시 동래구 충렬대로 446,동래구,129.106884964376,35.1959122197564,7,-1
23042,카페,커피점/카페,비알콜 음료점업,부산광역시 북구 백양대로 1011,북구,128.994168177913,35.196141902393,-1,-1
23085,카페스토리,커피점/카페,비알콜 음료점업,부산광역시 영도구 절영로93번길 2,영도구,129.040014368037,35.0866067361126,1,-1
23087,커피에반하다,커피점/카페,비알콜 음료점업,부산광역시 사상구 광장로38번길 30,사상구,128.9802077712,35.1611012356983,14,-1
23118,슬리브커피,커피점/카페,비알콜 음료점업,부산광역시 부산진구 전포대로224번길 11,부산진구,129.066236815018,35.1566428795817,10,3
23125,셀독24스터디카페,커피점/카페,비알콜 음료점업,부산광역시 북구 금곡대로 368,북구,129.014286477615,35.2412517734417,17,-1
23126,성별에이유,커피점/카페,비알콜 음료점업,부산광역시 강서구 명지국제8로 230,강서구,128.917833326811,35.097932309006,13,-1
23127,스타벅스,커피점/카페,비알콜 음료점업,부산광역시 동구 중앙대로196번길 10,동구,129.040354654467,35.1142588428362,1,-1
23133,원커피,커피점/카페,비알콜 음료점업,부산광역시 해운대구 해운대로61번길 89,해운대구,129.128332262795,35.1952365468736,-1,-1
23152,하삼동커피,커피점/카페,비알콜 음료점업,부산광역시 강서구 과학산단2로20번길 44,강서구,128.835441305203,35.150539772011,-1,-1
23158,컴포즈커피,커피점/카페,비알콜 음료점업,부산광역시 연제구 고분로 21-2,연제구,129.084943984021,35.185916123659,8,-1
23228,빽다방,커피점/카페,비알콜 음료점업,부산광역시 동래구 사직북로 26,동래구,129.060443230468,35.1981846763931,9,-1
23256,힐링타로101,커피점/카페,비알콜 음료점업,부산광역시 기장군 정관읍 구연방곡로 44,기장군,129.185242936039,35.3233716898949,-1,-1
23259,봉선당,커피점/카페,비알콜 음료점업,부산광역시 수영구 수영로679번길 22,수영구,129.113746322422,35.1668157515995,0,-1
23260,세라젬센텀점,커피점/카페,비알콜 음료점업,부산광역시 해운대구 센텀남대로 50,해운대구,129.131327552453,35.1681220886383,5,4
23298,텐퍼센트커피,커피점/카페,비알콜 음료점업,부산광역시 수영구 황령대로489번길 15,수영구,129.107936274504,35.1390521959061,0,0
23307,스타벅스,커피점/카페,비알콜 음료점업,부산광역시 동구 중앙대로214번길 7-8,동구,129.042062603979,35.1165787986227,1,-1
23308,스타벅스,커피점/카페,비알콜 음료점업,부산광역시 강서구 명지국제6로 168,강서구,128.918174282154,35.0931251890339,13,-1
23309,스타벅스,커피점/카페,비알콜 음료점업,부산광역시 기장군 기장읍 기장대로 527,기장군,129.220251665079,35.2421897071711,6,-1
23372,원스카페,커피점/카페,비알콜 음료점업,부산광역시 해운대구 해운대로 1178,해운대구,129.204316181079,35.1898446144214,-1,-1
23375,다래락까페,커피점/카페,비알콜 음료점업,부산광역시 남구 용소로 45,남구,129.107899605657,35.1347258575569,0,0
23383,할리스커피,커피점/카페,비알콜 음료점업,부산광역시 기장군 장안읍 동해고속도로 25,기장군,129.24642074748,35.3775401957292,-1,-1
23418,빽다방부산대역점,커피점/카페,비알콜 음료점업,부산광역시 금정구 장전온천천로 51,금정구,129.088897622113,35.2295886565065,2,2
23422,텐퍼센트커피,커피점/카페,비알콜 음료점업,부산광역시 사상구 학감대로 269,사상구,128.990529571141,35.1550950939553,-1,-1
23440,스무디킹,커피점/카페,비알콜 음료점업,부산광역시 부산진구 백양대로18번길 54,부산진구,129.04609928013,35.1645794232516,-1,-1
23444,커피하임,커피점/카페,비알콜 음료점업,부산광역시 연제구 중앙대로 1036,연제구,129.077850167792,35.180850574272,8,-1
23470,커피프로젝트,커피점/카페,비알콜 음료점업,부산광역시 북구 의성로 88,북구,129.00974679039,35.2127157665154,3,-1
23477,컴포즈커피,커피점/카페,비알콜 음료점업,부산광역시 사상구 가야대로 288,사상구,129.004131714741,35.150016421977,-1,-1
23480,카페,커피점/카페,비알콜 음료점업,부산광역시 영도구 동삼로28번길 15,영도구,129.072040733237,35.076917190388,-1,-1
23485,룰라랄라,커피점/카페,비알콜 음료점업,부산광역시 남구 용호로 99,남구,129.112650031901,35.1233788927473,-1,-1
23491,스타벅스,커피점/카페,비알콜 음료점업,부산광역시 부산진구 중앙대로 672,부산진구,129.059626430918,35.1530231927924,10,3
23492,1-29,커피점/카페,비알콜 음료점업,부산광역시 부산진구 백양대로208번길 137,부산진구,129.023273169133,35.1623946984344,-1,-1
23537,고고커피,커피점/카페,비알콜 음료점업,부산광역시 기장군 철마면 여락송정로 336,기장군,129.112826411574,35.3045183365086,-1,-1
23597,스타벅스,커피점/카페,비알콜 음료점업,부산광역시 연제구 교대로 20-2,연제구,129.077497589889,35.1957265804807,-1,-1
23654,카페브로,커피점/카페,비알콜 음료점업,부산광역시 부산진구 중앙대로 901,부산진구,129.069058301832,35.170959137069,8,-1
23655,파스쿠찌태종대점,커피점/카페,비알콜 음료점업,부산광역시 영도구 태종로 794,영도구,129.080960548791,35.0656786493573,-1,-1
23661,스타벅스,커피점/카페,비알콜 음료점업,부산광역시 사하구 다대로 493,사하구,128.975271063842,35.0609677159651,-1,-1
23662,스타벅스명지오션시티점,커피점/카페,비알콜 음료점업,부산광역시 강서구 명지오션시티11로 66,강서구,128.903180537101,35.0840433496121,-1,-1
23663,명가찻집,커피점/카페,비알콜 음료점업,부산광역시 부산진구 새싹로29번길 16,부산진구,129.056087235096,35.1602652353749,10,3
23686,류길상피자&카페테리아,커피점/카페,비알콜 음료점업,부산광역시 해운대구 재반로 70-1,해운대구,129.126347663508,35.1851054756088,-1,-1
23691,골든브릿지스터디카페,커피점/카페,비알콜 음료점업,부산광역시 해운대구 재반로 142,해운대구,129.127762567061,35.1905636906533,-1,-1
23770,감성커피,커피점/카페,비알콜 음료점업,부산광역시 동래구 안락로 140,동래구,129.112141144362,35.1988656600865,-1,-1
23845,셀독24스터디카페,커피점/카페,비알콜 음료점업,부산광역시 부산진구 전포대로 199,부산진구,129.06507661388,35.1543635488607,10,3
23846,코요,커피점/카페,비알콜 음료점업,부산광역시 기장군 일광면 해빛2로 24,기장군,129.22718806001,35.268673645627,-1,-1
23847,히컵커피,커피점/카페,비알콜 음료점업,부산광역시 금정구 수림로49번길 42,금정구,129.086857970456,35.238097972804,2,2
23849,텐퍼센트커피,커피점/카페,비알콜 음료점업,부산광역시 영도구 대교로 12-1,영도구,129.04373200568,35.0934975736831,1,-1
23856,멘토즈,커피점/카페,비알콜 음료점업,부산광역시 동구 고관로 46,동구,129.043476293727,35.1233451597178,1,-1
23878,커핀그루나루,커피점/카페,비알콜 음료점업,부산광역시 금정구 중앙대로 1607,금정구,129.089814761495,35.2283455135682,2,2
23913,카페엘,커피점/카페,비알콜 음료점업,부산광역시 강서구 명지국제2로 80,강서구,128.908443169321,35.0987782451478,-1,-1
23937,카페루메,커피점/카페,비알콜 음료점업,부산광역시 수영구 수영로 541-1,수영구,129.111994582466,35.1542484889671,0,-1
23961,카페캔디,커피점/카페,비알콜 음료점업,부산광역시 해운대구 중동1로 11-1,해운대구,129.161289135096,35.1638454458826,12,5
23989,명진커피숍,커피점/카페,비알콜 음료점업,부산광역시 사상구 사상로 476,사상구,128.987556016351,35.1869386872905,-1,-1
24008,이디야커피,커피점/카페,비알콜 음료점업,부산광역시 기장군 기장읍 차성동로126번길 2,기장군,129.217099531478,35.2488825203566,6,-1
24009,할리스커피,커피점/카페,비알콜 음료점업,부산광역시 사하구 낙동대로 123,사하구,129.002548377492,35.1032197157315,-1,-1
24021,오니에커피,커피점/카페,비알콜 음료점업,부산광역시 부산진구 중앙대로 821,부산진구,129.062811849219,35.1650378855499,10,3
24033,카페제니아,커피점/카페,비알콜 음료점업,부산광역시 기장군 기장읍 차성서로 148,기장군,129.21120592374,35.2463907943829,6,-1
24040,하삼동커피,커피점/카페,비알콜 음료점업,부산광역시 동구 고관로29번길 4,동구,129.042353279941,35.122173990063,1,-1
24048,베로에스프레소,커피점/카페,비알콜 음료점업,부산광역시 부산진구 당감로 56,부산진구,129.039078308711,35.1666319260766,-1,-1
24057,옥다방,커피점/카페,비알콜 음료점업,부산광역시 사하구 하신번영로 208,사하구,128.958489257078,35.0996188594129,-1,-1
24087,다룸,커피점/카페,비알콜 음료점업,부산광역시 동래구 명륜로207번길 33,동래구,129.081055624043,35.2123163786359,2,-1
24110,쥬스팜,커피점/카페,비알콜 음료점업,부산광역시 사하구 승학로 54,사하구,128.974188237351,35.1054520438983,11,-1
24129,하삼동커피좌동,커피점/카페,비알콜 음료점업,부산광역시 해운대구 좌동순환로311번길 8,해운대구,129.183117091286,35.1680960528232,4,-1
24169,카페투톤,커피점/카페,비알콜 음료점업,부산광역시 서구 보수대로 27,서구,129.024271785875,35.099288291032,1,1
24178,대가커피숍,커피점/카페,비알콜 음료점업,부산광역시 서구 충무대로276번길 12,서구,129.024919070327,35.0949200237423,1,1
24183,이디야커피보수점,커피점/카페,비알콜 음료점업,부산광역시 중구 국제시장2길 33,중구,129.028325154077,35.1023998780861,1,1
24207,낭만송백,커피점/카페,비알콜 음료점업,부산광역시 강서구 맥도강변길 283,강서구,128.931062169223,35.1337436307682,-1,-1
24217,크랩,커피점/카페,비알콜 음료점업,부산광역시 중구 대청로135번길 28,중구,129.035007421907,35.105200461227,1,1
24220,카페,커피점/카페,비알콜 음료점업,부산광역시 동래구 충렬대로410번길 70,동래구,129.101652307939,35.1938597150729,7,-1
24234,힙스터커피,커피점/카페,비알콜 음료점업,부산광역시 부산진구 동평로183번길 88,부산진구,129.048934344043,35.170801553985,-1,-1
24239,커피만드는집,커피점/카페,비알콜 음료점업,부산광역시 북구 상리로18번나길 3,북구,129.035935114854,35.2078613938266,-1,-1
24240,이디야커피,커피점/카페,비알콜 음료점업,부산광역시 북구 효열로 214-1,북구,129.019241167124,35.2631588108868,-1,-1
24242,스타벅스,커피점/카페,비알콜 음료점업,부산광역시 해운대구 APEC로 55,해운대구,129.13603906341,35.1690785295441,5,4
24288,비허밍스터디카페,커피점/카페,비알콜 음료점업,부산광역시 해운대구 좌동순환로 173,해운대구,129.175303805726,35.1781774080314,4,-1
24309,커피.집,커피점/카페,비알콜 음료점업,부산광역시 사상구 새벽로168번길 51,사상구,128.986212049025,35.1556621404496,14,-1
24357,경,커피점/카페,비알콜 음료점업,부산광역시 동래구 명륜로 74,동래구,129.084502584272,35.2006216595393,2,-1
24398,씨에이치17커피,커피점/카페,비알콜 음료점업,부산광역시 동래구 사직북로48번길 138,동래구,129.063589957352,35.2045479019063,9,-1
24403,코코라임,커피점/카페,비알콜 음료점업,부산광역시 남구 조각공원로 29,남구,129.101160599828,35.1297034296348,0,0
24415,시작스터디카페,커피점/카페,비알콜 음료점업,부산광역시 사하구 낙동대로 436,사하구,128.97107524651,35.1047108216319,11,-1
24483,파스쿠찌,커피점/카페,비알콜 음료점업,부산광역시 동래구 미남로 133,동래구,129.069429771942,35.2060198039049,-1,-1
24510,텐퍼센트커피,커피점/카페,비알콜 음료점업,부산광역시 부산진구 동평로 106,부산진구,129.041183778551,35.1656042882455,-1,-1
24518,뜨락커피숍,커피점/카페,비알콜 음료점업,부산광역시 서구 충무대로 195-2,서구,129.02429685355,35.0881377002293,-1,-1
24549,카페베리카토,커피점/카페,비알콜 음료점업,부산광역시 연제구 토곡로 25,연제구,129.104710275288,35.1820868332844,-1,-1
24605,비비드13,커피점/카페,비알콜 음료점업,부산광역시 수영구 광남로 129,수영구,129.116591184408,35.1532958127236,0,-1
24606,화이트펜슬스터디카페,커피점/카페,비알콜 음료점업,부산광역시 해운대구 신반송로 207,해운대구,129.157414870273,35.2304491719782,-1,-1
24607,스타벅스,커피점/카페,비알콜 음료점업,부산광역시 금정구 중앙대로 1989,금정구,129.091333339269,35.2621604871374,-1,-1
24629,카페슬로우,커피점/카페,비알콜 음료점업,부산광역시 강서구 신호산단2로 33,강서구,128.87779256893,35.0859605012771,-1,-1
24645,데일리카페,커피점/카페,비알콜 음료점업,부산광역시 동래구 온천장로107번길 5,동래구,129.083839776313,35.2201605456243,2,-1
24655,커피쿡부산명지국제,커피점/카페,비알콜 음료점업,부산광역시 강서구 명지국제12로19번길 10-8,강서구,128.923983004172,35.1054123983903,13,-1
24665,사이드카페,커피점/카페,비알콜 음료점업,부산광역시 해운대구 동백로 52,해운대구,129.152098476472,35.156604962917,15,-1
24679,브라운버드명지국제,커피점/카페,비알콜 음료점업,부산광역시 강서구 명지국제5로 141,강서구,128.921144082723,35.1075433069261,-1,-1
24689,엔제리너스,커피점/카페,비알콜 음료점업,부산광역시 서구 송도해변로 65,서구,129.015819047952,35.0748141016759,-1,-1
24690,카페,커피점/카페,비알콜 음료점업,부산광역시 수영구 수영로741번길 9,수영구,129.120655955578,35.16878915634,0,-1
24711,카페051,커피점/카페,비알콜 음료점업,부산광역시 금정구 서동로 166-1,금정구,129.104688554302,35.2145457898637,-1,-1
24733,쁘라떼,커피점/카페,비알콜 음료점업,부산광역시 동구 중앙대로 200,동구,129.039304052057,35.1144571491018,1,-1
24744,커피볶는집,커피점/카페,비알콜 음료점업,부산광역시 기장군 일광면 일광로 617,기장군,129.258612626582,35.2972571950043,-1,-1
24813,도미니카,커피점/카페,비알콜 음료점업,부산광역시 해운대구 좌동순환로99번길 22,해운대구,129.166904824965,35.177375267151,-1,-1
24844,두리담떡카페,커피점/카페,비알콜 음료점업,부산광역시 수영구 수영로394번길 18,수영구,129.10817136891,35.1410150761125,0,0
24845,사라펫,커피점/카페,비알콜 음료점업,부산광역시 부산진구 중앙대로 883,부산진구,129.06823911249,35.1695962519397,8,-1
24897,커피빈,커피점/카페,비알콜 음료점업,부산광역시 해운대구 마린시티3로 51,해운대구,129.145861210644,35.1540320752488,15,-1
24970,엔제리너스,커피점/카페,비알콜 음료점업,부산광역시 해운대구 선수촌로21번길 37,해운대구,129.115723090037,35.1966062986677,-1,-1
24994,카페미마,커피점/카페,비알콜 음료점업,부산광역시 남구 수영로334번길 47-2,남구,129.103709364966,35.1364496937857,0,0
25023,엔제리너스,커피점/카페,비알콜 음료점업,부산광역시 부산진구 복지로 70,부산진구,129.019662280679,35.1474709763083,-1,-1
25030,카페,커피점/카페,비알콜 음료점업,부산광역시 금정구 금정로 20,금정구,129.086807484009,35.2277235583279,2,2
25031,카페,커피점/카페,비알콜 음료점업,부산광역시 동래구 충렬대로237번길 12,동래구,129.085521694303,35.2021088241002,2,-1
25032,카페,커피점/카페,비알콜 음료점업,부산광역시 북구 기찰로 51,북구,129.010527415718,35.2127813646787,3,-1
25037,더벤티,커피점/카페,비알콜 음료점업,부산광역시 영도구 태종로 727,영도구,129.087544786727,35.0744084616929,-1,-1
25061,PPANGJIP(스타벅스재능기부카페2호점),커피점/카페,비알콜 음료점업,부산광역시 부산진구 전포대로190번길 35,부산진구,129.067558785576,35.153656645285,10,3
25099,학원,커피점/카페,비알콜 음료점업,부산광역시 사하구 낙동대로 542,사하구,128.964760985404,35.1124772886341,11,-1
25106,설빙,커피점/카페,비알콜 음료점업,부산광역시 금정구 구서로 6,금정구,129.090579149467,35.2468799654383,2,-1
25113,도피오커피중앙동교보점,커피점/카페,비알콜 음료점업,부산광역시 중구 충장대로 7,중구,129.037283769021,35.1056587489517,1,1
25129,커피에반하다,커피점/카페,비알콜 음료점업,부산광역시 사하구 다대로 704,사하구,128.964647195995,35.048784393409,-1,-1
25136,카페디아떼,커피점/카페,비알콜 음료점업,부산광역시 기장군 기장읍 차성남로65번길 15,기장군,129.215360676445,35.2428067823676,6,-1
25190,카페마루,커피점/카페,비알콜 음료점업,부산광역시 기장군 장안읍 해맞이로 427,기장군,129.282201328659,35.3296741767096,-1,-1
25223,파스쿠찌,커피점/카페,비알콜 음료점업,부산광역시 강서구 가덕해안로 612,강서구,128.811097003565,35.0418493428213,-1,-1
25267,무운정사,커피점/카페,비알콜 음료점업,부산광역시 사하구 낙동대로 267,사하구,128.987842419477,35.0989145224483,-1,-1
25268,학원,커피점/카페,비알콜 음료점업,부산광역시 수영구 망미배산로76번가길 45,수영구,129.099518323273,35.1764643663099,-1,-1
25269,학원,커피점/카페,비알콜 음료점업,부산광역시 기장군 장안읍 해맞이로 13,기장군,129.245047208046,35.313153226633,-1,-1
25316,아이엔지커피,커피점/카페,비알콜 음료점업,부산광역시 동구 중앙대로180번길 7,동구,129.039782764384,35.1132812231184,1,-1
25323,스타벅스센텀KNN점,커피점/카페,비알콜 음료점업,부산광역시 해운대구 센텀서로 30,해운대구,129.128462304753,35.1720788458596,5,4
25386,내고향전통찻집,커피점/카페,비알콜 음료점업,부산광역시 부산진구 서면문화로 16,부산진구,129.057115976299,35.1591836065663,10,3
25397,카페,커피점/카페,비알콜 음료점업,부산광역시 영도구 태종로 727,영도구,129.087544786727,35.0744084616929,-1,-1
25432,메가커피주례,커피점/카페,비알콜 음료점업,부산광역시 사상구 가야대로318번길 14,사상구,129.007325734255,35.1500439942356,-1,-1
25508,카페위드,커피점/카페,비알콜 음료점업,부산광역시 금정구 놀이마당로36번길 12,금정구,129.084718661367,35.2770926303591,-1,-1
25515,율리어스마이늘,커피점/카페,비알콜 음료점업,부산광역시 동구 중앙대로 297,동구,129.043738309337,35.1232437498378,1,-1
25523,공차,커피점/카페,비알콜 음료점업,부산광역시 서구 송도해변로 81,서구,129.016614121195,35.076150538042,-1,-1
25528,투썸플레이스,커피점/카페,비알콜 음료점업,부산광역시 강서구 공항로811번가길 27,강서구,128.957298396739,35.1787535585197,-1,-1
25553,에끄로와,커피점/카페,비알콜 음료점업,부산광역시 해운대구 센텀중앙로 66,해운대구,129.128445174933,35.1740169788354,5,4
25556,제일커피숍,커피점/카페,비알콜 음료점업,부산광역시 동래구 충렬대로 421,동래구,129.104382482523,35.1968094088324,7,-1
25585,스타벅스,커피점/카페,비알콜 음료점업,부산광역시 해운대구 해운대로 802,해운대구,129.176689134256,35.1691772216307,4,-1
25607,이디야커피,커피점/카페,비알콜 음료점업,부산광역시 남구 신선로 428,남구,129.10140042887,35.1246985224889,-1,-1
25609,커피스캔들,커피점/카페,비알콜 음료점업,부산광역시 남구 수영로 195-2,남구,129.088066627246,35.1351489255417,0,-1
25653,TheZoom,커피점/카페,비알콜 음료점업,부산광역시 영도구 태종로113번길 23,영도구,129.043570385623,35.0920026354974,1,-1
25776,웅스커피,커피점/카페,비알콜 음료점업,부산광역시 수영구 광남로 168,수영구,129.119107787352,35.1559406980394,0,-1
25838,할리스커피,커피점/카페,비알콜 음료점업,부산광역시 남구 용소로 7,남구,129.100662181551,35.1366937422013,0,0
25860,구십구점구구구,커피점/카페,비알콜 음료점업,부산광역시 강서구 공항로393번길 60-27,강서구,128.946665996702,35.1451697535881,-1,-1
25870,투더디퍼런트부산개금점,커피점/카페,비알콜 음료점업,부산광역시 부산진구 가야대로 486,부산진구,129.025216430298,35.1528054480268,-1,-1
25878,롱테일프랜드cafe솜솜,커피점/카페,비알콜 음료점업,부산광역시 부산진구 범양로 22,부산진구,129.06289857684,35.1666416000989,10,3
25896,명성다방,커피점/카페,비알콜 음료점업,부산광역시 동래구 충렬대로 385,동래구,129.100755627977,35.1973922749362,7,-1
25914,알비에이치커피,커피점/카페,비알콜 음료점업,부산광역시 해운대구 좌동순환로433번길 38-37,해운대구,129.17855864443,35.1618037967323,4,-1
25956,엔제리너스,커피점/카페,비알콜 음료점업,부산광역시 부산진구 새싹로 295-1,부산진구,129.044397464468,35.1842895063197,-1,-1
25971,아마스빈,커피점/카페,비알콜 음료점업,부산광역시 북구 금곡대로303번길 35,북구,129.011698719228,35.2354775260884,17,-1
26048,텐퍼센트다대낫개점,커피점/카페,비알콜 음료점업,부산광역시 사하구 다송로72번길 63,사하구,128.980939185838,35.0600746824682,-1,-1
26102,스타벅스,커피점/카페,비알콜 음료점업,부산광역시 부산진구 중앙대로 777,부산진구,129.061903308303,35.1618549283166,10,3
26185,설빙,커피점/카페,비알콜 음료점업,부산광역시 동래구 명장로20번길 27,동래구,129.102028951338,35.2046728712684,-1,-1
26295,파스쿠찌,커피점/카페,비알콜 음료점업,부산광역시 북구 금곡대로303번길 36,북구,129.01201089466,35.235844484419,17,-1
26413,탐앤탐스,커피점/카페,비알콜 음료점업,부산광역시 연제구 월드컵대로 125,연제구,129.081860749214,35.1852406239197,8,-1
26427,잇모어그린,커피점/카페,비알콜 음료점업,부산광역시 남구 황령대로319번가길 190-6,남구,129.089036373829,35.1511128699196,-1,-1
26564,할리스커피,커피점/카페,비알콜 음료점업,부산광역시 중구 광복로 73-2,중구,129.033193220617,35.0987709055613,1,1
26650,스타벅스,커피점/카페,비알콜 음료점업,부산광역시 중구 구덕로 4,중구,129.035150801164,35.0983215343327,1,1
26657,프루티,커피점/카페,비알콜 음료점업,부산광역시 수영구 광남로 55,수영구,129.112253388719,35.1474586626949,0,-1
26660,카페M,커피점/카페,비알콜 음료점업,부산광역시 금정구 공단로 7,금정구,129.109696968456,35.2161585235428,-1,-1
26706,카페나예,커피점/카페,비알콜 음료점업,부산광역시 부산진구 동평로95번길 34-1,부산진구,129.03909249476,35.1668841944102,-1,-1
26707,마이농커피,커피점/카페,비알콜 음료점업,부산광역시 부산진구 신천대로 122,부산진구,129.054534707382,35.1539329538279,10,3
26733,저스트커피,커피점/카페,비알콜 음료점업,부산광역시 부산진구 황령대로17번길 25,부산진구,129.060992343219,35.1491803189036,10,3
26739,드리아데,커피점/카페,비알콜 음료점업,부산광역시 남구 신선로 428,남구,129.10140042887,35.1246985224889,-1,-1
26744,청도,커피점/카페,비알콜 음료점업,부산광역시 영도구 산업로 14-1,영도구,129.065308795823,35.0946710345137,-1,-1
26798,스타벅스,커피점/카페,비알콜 음료점업,부산광역시 동구 범일로 125,동구,129.058596888446,35.1413230864786,10,-1
26821,스타벅스,커피점/카페,비알콜 음료점업,부산광역시 금정구 장전로12번길 64,금정구,129.088756366931,35.2305273611084,2,2
26842,카페네스카페,커피점/카페,비알콜 음료점업,부산광역시 서구 까치고개로197번길 17,서구,129.017236991256,35.1007086389771,1,-1
26862,빽다방,커피점/카페,비알콜 음료점업,부산광역시 해운대구 재반로 86,해운대구,129.12575017235,35.1863639510852,-1,-1
26863,하삼동커피,커피점/카페,비알콜 음료점업,부산광역시 서구 구덕로334번길 6,서구,129.016254829927,35.1134807528423,18,-1
26864,하삼동다대롯데캐슬,커피점/카페,비알콜 음료점업,부산광역시 사하구 다대낙조2길 100,사하구,128.964856527102,35.0553991262129,-1,-1
26919,킹프레소,커피점/카페,비알콜 음료점업,부산광역시 해운대구 해운대로123번길 37,해운대구,129.123080737315,35.1862625416381,-1,-1
26972,국제커피.생과일주스,커피점/카페,비알콜 음료점업,부산광역시 동구 진시장로 24,동구,129.05886291705,35.1364442151691,10,-1
27001,환바이크,커피점/카페,비알콜 음료점업,부산광역시 수영구 광안해변로 19-1,수영구,129.112468759236,35.1374783086768,0,-1
27020,시크릿가든,커피점/카페,비알콜 음료점업,부산광역시 부산진구 가야대로 772,부산진구,129.056437700996,35.1568098468641,10,3
27064,아모제,커피점/카페,비알콜 음료점업,부산광역시 해운대구 센텀남대로 35,해운대구,129.129106584707,35.1686565992762,5,4
27084,파스쿠찌,커피점/카페,비알콜 음료점업,부산광역시 부산진구 동천로 62,부산진구,129.062627981705,35.154276882443,10,3
27102,커피클라우드,커피점/카페,비알콜 음료점업,부산광역시 수영구 망미로22번길 60,수영구,129.101519656389,35.1710108268365,-1,-1
27117,커피가좋은사람들,커피점/카페,비알콜 음료점업,부산광역시 해운대구 해운대로 284,해운대구,129.130900673308,35.1745529351689,5,4
27125,마루팥빙수바이더,커피점/카페,비알콜 음료점업,부산광역시 서구 대신공원로 5,서구,129.016348512643,35.1183745828333,18,-1
27142,봉백87,커피점/카페,비알콜 음료점업,부산광역시 사상구 진사로 28,사상구,129.016105137556,35.1491233740322,-1,-1
27213,예술공간DOT,커피점/카페,비알콜 음료점업,부산광역시 금정구 금샘로 35,금정구,129.076793459368,35.2288947094794,2,-1
27214,셀렉토커피,커피점/카페,비알콜 음료점업,부산광역시 부산진구 부전로 51,부산진구,129.055159030806,35.1546846885269,10,3
27237,THEWAIN-INGCOFFEE,커피점/카페,비알콜 음료점업,부산광역시 금정구 중앙대로 1784,금정구,129.093765835486,35.2436242797988,2,-1
27266,키키케이크,커피점/카페,비알콜 음료점업,부산광역시 중구 광복로49번길 35,중구,129.030233683695,35.1024017031411,1,1
27284,제이제이165로스터스,커피점/카페,비알콜 음료점업,부산광역시 강서구 낙동남로 648,강서구,128.889079009151,35.1164543086486,-1,-1
27307,커피어웨이크,커피점/카페,비알콜 음료점업,부산광역시 금정구 부산대학로63번길 46-4,금정구,129.083869520141,35.2298320872955,2,2
27327,북카페,커피점/카페,비알콜 음료점업,부산광역시 기장군 일광면 삼성1길 15,기장군,129.234713618293,35.2648564412193,-1,-1
27378,이씨엠디BNCT,커피점/카페,비알콜 음료점업,부산광역시 강서구 신항남로 586,강서구,128.819049979822,35.0644668486062,-1,-1
27379,디저트39,커피점/카페,비알콜 음료점업,부산광역시 강서구 명지오션시티1로 173,강서구,128.904078098862,35.0799171833045,-1,-1
27412,주나커피,커피점/카페,비알콜 음료점업,부산광역시 해운대구 반송로 907,해운대구,129.152321048231,35.2322464341397,-1,-1
27512,개판5분전,커피점/카페,비알콜 음료점업,부산광역시 금정구 노포사송로 96,금정구,129.090856089999,35.2880431837136,-1,-1
27513,히든이스케이프,커피점/카페,비알콜 음료점업,부산광역시 수영구 광남로 42,수영구,129.111842792038,35.1463176676936,0,-1
27515,봉봉키즈,커피점/카페,비알콜 음료점업,부산광역시 강서구 명지국제8로 229,강서구,128.918038412116,35.0986158309542,13,-1
27570,타르타르,커피점/카페,비알콜 음료점업,부산광역시 남구 수영로334번길 3,남구,129.102449993817,35.1382639388851,0,0
27629,탐앤탐스,커피점/카페,비알콜 음료점업,부산광역시 동구 중앙대로 206,동구,129.045081835992,35.117625470822,1,-1
27656,일레븐,커피점/카페,비알콜 음료점업,부산광역시 중구 중앙대로 75,중구,129.036028112811,35.1043804809698,1,1
27662,르갈라,커피점/카페,비알콜 음료점업,부산광역시 해운대구 세실로27번길 21,해운대구,129.177965878425,35.1686510269619,4,-1
27669,원두커피볶는집,커피점/카페,비알콜 음료점업,부산광역시 금정구 금정로 29,금정구,129.085726499992,35.2273907347099,2,2
27671,카페루앤비,커피점/카페,비알콜 음료점업,부산광역시 해운대구 재송2로 17,해운대구,129.130537463438,35.1927191574723,-1,-1
27672,커피베이,커피점/카페,비알콜 음료점업,부산광역시 강서구 공항진입로 108,강서구,128.945755851608,35.17273274068,-1,-1
27676,셀렉토커피,커피점/카페,비알콜 음료점업,부산광역시 부산진구 가야대로 781,부산진구,129.057055520322,35.1579041569366,10,3
27677,애견카페베토벤,커피점/카페,비알콜 음료점업,부산광역시 해운대구 달맞이길117번가길 120-22,해운대구,129.181290597571,35.1571711399848,-1,-1
27685,이디야커피,커피점/카페,비알콜 음료점업,부산광역시 해운대구 선수촌로 74-11,해운대구,129.119717698949,35.2004273348676,-1,-1
27703,인,커피점/카페,비알콜 음료점업,부산광역시 동구 중앙대로286번길 3,동구,129.044007888604,35.1220155257002,1,-1
27787,카페십구일,커피점/카페,비알콜 음료점업,부산광역시 기장군 정관읍 방곡5로 2-26,기장군,129.185812645005,35.3232218867569,-1,-1
27867,퓨리티카페,커피점/카페,비알콜 음료점업,부산광역시 기장군 기장읍 차성로 329,기장군,129.213631555947,35.246952378964,6,-1
27902,카페토스피아부산정관점,커피점/카페,비알콜 음료점업,부산광역시 기장군 정관읍 정관4로 49-36,기장군,129.170566465505,35.3268316673776,-1,-1
27939,더벤티,커피점/카페,비알콜 음료점업,부산광역시 중구 해관로 61-2,중구,129.035393365442,35.104494071929,1,1
28038,6.5커피숍,커피점/카페,비알콜 음료점업,부산광역시 북구 금곡대로 14,북구,129.005683552433,35.2100904865164,3,-1
28100,텐퍼센트w스퀘어점,커피점/카페,비알콜 음료점업,부산광역시 남구 분포로 145,남구,129.111239729405,35.1342445806076,0,-1
28187,오드리헵번카페티엠,커피점/카페,비알콜 음료점업,부산광역시 해운대구 센텀동로 6,해운대구,129.133715633542,35.1709301043966,5,4
28202,하이퀄리티커피,커피점/카페,비알콜 음료점업,부산광역시 남구 수영로 256-1,남구,129.09472676377,35.1351250004784,0,0
28239,카페,커피점/카페,비알콜 음료점업,부산광역시 남구 동명로117번길 82,남구,129.109694760955,35.1230814849839,-1,-1
28263,우차,커피점/카페,비알콜 음료점업,부산광역시 사상구 광장로81번길 48,사상구,128.984464637845,35.1645821739421,14,-1
28297,더벤티,커피점/카페,비알콜 음료점업,부산광역시 동래구 반송로 271,동래구,129.100913693633,35.2042233122046,-1,-1
28382,3.14카페,커피점/카페,비알콜 음료점업,부산광역시 사하구 윤공단로17번길 102,사하구,128.966937009376,35.0561307361111,-1,-1
28459,카페도츠,커피점/카페,비알콜 음료점업,부산광역시 수영구 광안해변로 95,수영구,129.114006575908,35.143233072449,0,-1
28468,엑스키,커피점/카페,비알콜 음료점업,부산광역시 남구 분포로 145,남구,129.111239729405,35.1342445806076,0,-1
28471,컴포즈커피,커피점/카페,비알콜 음료점업,부산광역시 부산진구 서면문화로 8-6,부산진구,129.058151810118,35.1586517564067,10,3
28474,텐퍼센트,커피점/카페,비알콜 음료점업,부산광역시 남구 분포로 145,남구,129.111239729405,35.1342445806076,0,-1
28485,천왕장군,커피점/카페,비알콜 음료점업,부산광역시 남구 동명로146번길 48,남구,129.112062616037,35.1172908719324,-1,-1
28622,설빙,커피점/카페,비알콜 음료점업,부산광역시 해운대구 구남로 20,해운대구,129.159804634999,35.1621109882614,12,5
28707,카페오뜨 광안비치점,커피점/카페,비알콜 음료점업,부산광역시 수영구 광안해변로 209,수영구,129.117604842724,35.1527816899297,0,-1
28726,행복동커피,커피점/카페,비알콜 음료점업,부산광역시 연제구 거제천로 126-1,연제구,129.075511309228,35.1849907040609,8,-1
28753,부산하단점멘토즈스터디카페,커피점/카페,비알콜 음료점업,부산광역시 사하구 하신번영로 407,사하구,128.960331945734,35.1173890724928,-1,-1
28755,카페하루,커피점/카페,비알콜 음료점업,부산광역시 강서구 녹산산단232로 38-17,강서구,128.840686650516,35.0853219958932,-1,-1
28760,카페아지아토,커피점/카페,비알콜 음료점업,부산광역시 남구 용호로 111,남구,129.112489777832,35.1220823594404,-1,-1
28836,어벤더치,커피점/카페,비알콜 음료점업,부산광역시 부산진구 중앙대로680번길 41,부산진구,129.061499492152,35.1535836884749,10,3
28966,카페인부산,커피점/카페,비알콜 음료점업,부산광역시 해운대구 달맞이길 213,해운대구,129.183381508543,35.159827830401,-1,-1
28978,Cafe#InConte,커피점/카페,비알콜 음료점업,부산광역시 사하구 낙동대로 389,사하구,128.975374208372,35.1028013826399,11,-1
29051,달콩커피,커피점/카페,비알콜 음료점업,부산광역시 해운대구 선수촌로 104-18,해운대구,129.120352299647,35.2026568866351,-1,-1
29100,숲,커피점/카페,비알콜 음료점업,부산광역시 영도구 중리로 46-12,영도구,129.068911674549,35.0749256671703,-1,-1
29114,스무디킹,커피점/카페,비알콜 음료점업,부산광역시 부산진구 동천로 92,부산진구,129.063037211547,35.157049580457,10,3
29124,커피데이,커피점/카페,비알콜 음료점업,부산광역시 연제구 중앙대로1235번길 22,연제구,129.077736824395,35.1972117364788,-1,-1
29177,스타벅스,커피점/카페,비알콜 음료점업,부산광역시 금정구 금샘로 459,금정구,129.084752652172,35.2639773430004,-1,-1
29248,KOUM,커피점/카페,비알콜 음료점업,부산광역시 수영구 광안해변로 122,수영구,129.114985482599,35.1458110539255,0,-1
29260,흙전통다원,커피점/카페,비알콜 음료점업,부산광역시 강서구 가락대로 1229,강서구,128.900594031949,35.1748707186341,-1,-1
29285,탐앤탐스,커피점/카페,비알콜 음료점업,부산광역시 수영구 광안해변로278번길 42,수영구,129.124535746686,35.1539885137029,0,-1
29302,카페오피,커피점/카페,비알콜 음료점업,부산광역시 해운대구 해운대로 409,해운대구,129.140792012749,35.1674924976253,-1,-1
29332,커피마마,커피점/카페,비알콜 음료점업,부산광역시 부산진구 연수로 6-1,부산진구,129.072257552723,35.1729950404662,8,-1
29351,커피아라,커피점/카페,비알콜 음료점업,부산광역시 해운대구 해운대해변로 83,해운대구,129.142346080989,35.1616639337822,15,-1
29377,젤라떼리아,커피점/카페,비알콜 음료점업,부산광역시 수영구 광안해변로344번길 17-3,수영구,129.13087362681,35.1551554061793,0,-1
29413,석천서화연구원,커피점/카페,비알콜 음료점업,부산광역시 동구 고관로13번길 3,동구,129.041743465063,35.1208091059857,1,-1
29453,티머,커피점/카페,비알콜 음료점업,부산광역시 해운대구 센텀1로 9,해운대구,129.130983686538,35.1678638984333,5,4
29477,엔제리너스,커피점/카페,비알콜 음료점업,부산광역시 중구 비프광장로 37,중구,129.029495153808,35.0986220821952,1,1
29482,카페양,커피점/카페,비알콜 음료점업,부산광역시 남구 용호로42번길 95,남구,129.109787009316,35.1226029025129,-1,-1
29535,쉐어디,커피점/카페,비알콜 음료점업,부산광역시 해운대구 센텀남대로 35,해운대구,129.129106584707,35.1686565992762,5,4
29561,존스터디카페,커피점/카페,비알콜 음료점업,부산광역시 남구 분포로 115,남구,129.112748233323,35.1322116244133,-1,-1
29575,카페보리,커피점/카페,비알콜 음료점업,부산광역시 부산진구 황령대로8번길 7,부산진구,129.060826060933,35.1473609600545,10,3
29613,이디야커피,커피점/카페,비알콜 음료점업,부산광역시 연제구 과정로225번길 5,연제구,129.102553381311,35.1874066251377,7,-1
29683,크로체,커피점/카페,비알콜 음료점업,부산광역시 해운대구 센텀2로 20,해운대구,129.132061409074,35.1672138493131,5,4
29786,누리고,커피점/카페,비알콜 음료점업,부산광역시 기장군 정관읍 모전3길 25,기장군,129.168755965951,35.3362953926843,-1,-1
29796,디저트,커피점/카페,비알콜 음료점업,부산광역시 부산진구 가야대로 772,부산진구,129.056437700996,35.1568098468641,10,3
29906,로제커피,커피점/카페,비알콜 음료점업,부산광역시 금정구 금강로335번길 40,금정구,129.084264361273,35.2380401112753,2,2
29945,쥬시기장점,커피점/카페,비알콜 음료점업,부산광역시 기장군 기장읍 차성동로 111,기장군,129.216622221538,35.2478237122029,6,-1
29987,글루,커피점/카페,비알콜 음료점업,부산광역시 중구 중앙대로 2,중구,129.036730232514,35.0983260672492,1,1
30036,구스카페,커피점/카페,비알콜 음료점업,부산광역시 남구 용소로21번길 133,남구,129.10629634086,35.1386885946574,0,0
30042,투썸플레이스부산반여,커피점/카페,비알콜 음료점업,부산광역시 해운대구 선수촌로 103-8,해운대구,129.119032202793,35.2032910457883,-1,-1
30053,엔제리너스,커피점/카페,비알콜 음료점업,부산광역시 사상구 사상로 220,사상구,128.983731650198,35.1647864358849,14,-1
30330,공챠,커피점/카페,비알콜 음료점업,부산광역시 해운대구 센텀남대로 35,해운대구,129.129106584707,35.1686565992762,5,4
30400,카페하루숑,커피점/카페,비알콜 음료점업,부산광역시 수영구 광안로49번길 27,수영구,129.118323324693,35.1563625793889,0,-1
30406,썸투썸,커피점/카페,비알콜 음료점업,부산광역시 동구 초량로 25,동구,129.03946037437,35.1198551951257,1,-1
30428,커피양,커피점/카페,비알콜 음료점업,부산광역시 남구 용호로42번길 95,남구,129.109787009316,35.1226029025129,-1,-1
30437,아수라발발타,커피점/카페,비알콜 음료점업,부산광역시 중구 비프광장로 8-1,중구,129.026254990057,35.0982529338788,1,1
30468,베러댄와플,커피점/카페,비알콜 음료점업,부산광역시 서구 구덕로 299,서구,129.017283964114,35.1106687575902,1,-1
30481,Place38,커피점/카페,비알콜 음료점업,부산광역시 연제구 고분로13번길 15,연제구,129.084219932522,35.1867879379526,8,-1
30533,카페쿰,커피점/카페,비알콜 음료점업,부산광역시 수영구 광안해변로 122,수영구,129.114985482599,35.1458110539255,0,-1
30552,까페감,커피점/카페,비알콜 음료점업,부산광역시 금정구 오륜대로 253-1,금정구,129.115589377731,35.2478327979766,-1,-1
30635,부산스쿼시클럽,커피점/카페,비알콜 음료점업,부산광역시 남구 황령대로319번가길 190-6,남구,129.089036373829,35.1511128699196,-1,-1
30639,노고지리라이브카페,커피점/카페,비알콜 음료점업,부산광역시 수영구 광안해변로 25,수영구,129.112933984906,35.1377985372463,0,-1
30648,그리다카페,커피점/카페,비알콜 음료점업,부산광역시 남구 유엔로 217,남구,129.100038378812,35.1302905118082,0,0
30666,황금나무커피,커피점/카페,비알콜 음료점업,부산광역시 부산진구 가야대로784번길 5,부산진구,129.057375661447,35.15719827718,10,3
30686,살몬,커피점/카페,비알콜 음료점업,부산광역시 해운대구 반여로 112-1,해운대구,129.123840017694,35.201533896837,-1,-1
30777,카페,커피점/카페,비알콜 음료점업,부산광역시 남구 용소로19번길 48,남구,129.103141032401,35.1366171190185,0,0
30786,달콤,커피점/카페,비알콜 음료점업,부산광역시 수영구 수영로 557,수영구,129.112319517145,35.1555435039206,0,-1
30805,모수아명차,커피점/카페,비알콜 음료점업,부산광역시 남구 신선로 566,남구,129.109693326818,35.1326813170325,0,-1
30952,주평철학관,커피점/카페,비알콜 음료점업,부산광역시 남구 수영로 243-1,남구,129.09332579641,35.1353900376839,0,0
30982,오드리헵번카페티엠,커피점/카페,비알콜 음료점업,부산광역시 부산진구 신천대로 241,부산진구,129.04934326862,35.1633254737143,10,-1
31045,두커피로스터스,커피점/카페,비알콜 음료점업,부산광역시 금정구 금강로321번길 66,금정구,129.082932708303,35.2370424897485,2,2
31060,카페,커피점/카페,비알콜 음료점업,부산광역시 북구 금곡대로303번길 22,북구,129.012668889277,35.2357488425259,17,-1
31084,엔제리너스,커피점/카페,비알콜 음료점업,부산광역시 해운대구 양운로 56,해운대구,129.176986193006,35.1684622467167,4,-1
31100,봄차,커피점/카페,비알콜 음료점업,부산광역시 부산진구 황령대로8번길 59,부산진구,129.060094323725,35.1450958517171,10,-1
31115,네스카페,커피점/카페,비알콜 음료점업,부산광역시 기장군 정관읍 정관로 578,기장군,129.176835584059,35.3207587609257,16,-1
31136,커피하우스,커피점/카페,비알콜 음료점업,부산광역시 수영구 민락로6번길 49,수영구,129.124901504259,35.157437426113,0,-1
31210,동피랑김밥카페,커피점/카페,비알콜 음료점업,부산광역시 연제구 과정로 273,연제구,129.097309090118,35.1877066426713,7,-1
31219,스타벅스,커피점/카페,비알콜 음료점업,부산광역시 해운대구 구남로 9,해운대구,129.159613384105,35.163329683637,12,5
31277,마비스커피,커피점/카페,비알콜 음료점업,부산광역시 북구 만덕대로 42,북구,129.009681212814,35.2109676184342,3,-1
31290,더락PC카페,커피점/카페,비알콜 음료점업,부산광역시 서구 구덕로214번길 8,서구,129.020508895043,35.1036197199801,1,-1
31331,커피명가,커피점/카페,비알콜 음료점업,부산광역시 강서구 가덕해안로 748,강서구,128.812398859264,35.0305276659305,-1,-1
31368,순,커피점/카페,비알콜 음료점업,부산광역시 금정구 금강로321번길 15,금정구,129.085675874195,35.2367835563484,2,2
31374,카페페르마타(CafeFermata),커피점/카페,비알콜 음료점업,부산광역시 금정구 가마실로 21,금정구,129.091263447271,35.2249613043213,2,2
31375,리카,커피점/카페,비알콜 음료점업,부산광역시 사상구 백양대로 569,사상구,128.992381182201,35.1584421595299,-1,-1
31413,카페051해운대좌동점,커피점/카페,비알콜 음료점업,부산광역시 해운대구 세실로 174,해운대구,129.177358891537,35.1790858669339,-1,-1
31416,엘룬,커피점/카페,비알콜 음료점업,부산광역시 강서구 명지오션시티4로 100,강서구,128.903280957397,35.0802205911263,-1,-1
31420,카페잠시멈춤,커피점/카페,비알콜 음료점업,부산광역시 해운대구 재반로112번길 11,해운대구,129.127682767193,35.1887616724457,-1,-1
31425,카페여,커피점/카페,비알콜 음료점업,부산광역시 부산진구 동평로265번길 12,부산진구,129.056243057747,35.171468171585,-1,-1
31426,베이글카페,커피점/카페,비알콜 음료점업,부산광역시 해운대구 센텀동로 99,해운대구,129.125873190846,35.1761771902628,5,4
31446,롯데쇼핑롯데시네마광복,커피점/카페,비알콜 음료점업,부산광역시 중구 중앙대로 2,중구,129.036730232514,35.0983260672492,1,1
31474,개런티커피,커피점/카페,비알콜 음료점업,부산광역시 해운대구 좌동순환로433번길 38-37,해운대구,129.17855864443,35.1618037967323,4,-1
31485,커피이야기,커피점/카페,비알콜 음료점업,부산광역시 중구 충장대로 24,중구,129.039635521571,35.1051428331784,1,1
31511,카페ELIM,커피점/카페,비알콜 음료점업,부산광역시 남구 용소로19번길 65,남구,129.103894764663,35.1371781315921,0,0
31512,카페,커피점/카페,비알콜 음료점업,부산광역시 북구 은행나무로 27,북구,129.038158257087,35.2073646173588,-1,-1
31518,컴포즈커피,커피점/카페,비알콜 음료점업,부산광역시 연제구 시청로 12,연제구,129.076243111429,35.1813696418771,8,-1
31522,콩볶는사람들,커피점/카페,비알콜 음료점업,부산광역시 남구 수영로 345,남구,129.103526640392,35.1399848089797,0,0
31546,카페소림다원(기장점)277번길,커피점/카페,비알콜 음료점업,부산광역시 기장군 기장읍 차성로277번길 1,기장군,129.213207912434,35.242116304931,6,-1
31573,슈가몽,커피점/카페,비알콜 음료점업,부산광역시 연제구 중앙대로 1229,연제구,129.079184729016,35.1970906752921,2,-1
31586,올빛커피하우스,커피점/카페,비알콜 음료점업,부산광역시 강서구 낙동북로188번길 33,강서구,128.947859041675,35.2129907444188,-1,-1
31641,까페루미,커피점/카페,비알콜 음료점업,부산광역시 남구 용소로 5,남구,129.100554648878,35.1368569692279,0,0
31704,드롭탑,커피점/카페,비알콜 음료점업,부산광역시 부산진구 중앙대로 747,부산진구,129.060038305232,35.1593924341675,10,3
31751,뉴그린다방,커피점/카페,비알콜 음료점업,부산광역시 북구 의성로 80,북구,129.009690494924,35.2134914305323,3,-1
31754,커피에반하다,커피점/카페,비알콜 음료점업,부산광역시 부산진구 가야대로 480-1,부산진구,129.02459181435,35.1528828433504,-1,-1
31772,영배다방,커피점/카페,비알콜 음료점업,부산광역시 사하구 다대로 542-2,사하구,128.971061920693,35.0582431551556,-1,-1
31782,베이커리카페,커피점/카페,비알콜 음료점업,부산광역시 남구 용소로 45,남구,129.107899605657,35.1347258575569,0,0
31848,카페오썸,커피점/카페,비알콜 음료점업,부산광역시 수영구 남천바다로9번길 16,수영구,129.112228879075,35.1504965657113,0,-1
31885,핸즈커피,커피점/카페,비알콜 음료점업,부산광역시 금정구 중앙대로 2093,금정구,129.092377464281,35.2711738105253,-1,-1
31904,자스민해양대학교점,커피점/카페,비알콜 음료점업,부산광역시 영도구 태종로 759,영도구,129.080791593684,35.0686637995203,-1,-1
31923,프루토프루타,커피점/카페,비알콜 음료점업,부산광역시 수영구 연수로357번길 35,수영구,129.111130863771,35.1722480816396,0,-1
31973,커피볶는집,커피점/카페,비알콜 음료점업,부산광역시 남구 용소로34번길 25,남구,129.099727725404,35.1341152325832,0,0
32035,이디아커피,커피점/카페,비알콜 음료점업,부산광역시 해운대구 재반로 176,해운대구,129.129806610906,35.1930685026363,-1,-1
32036,커피아라,커피점/카페,비알콜 음료점업,부산광역시 해운대구 해운대해변로 99,해운대구,129.142580720151,35.1611749741067,15,-1
32096,운커피센텀점,커피점/카페,비알콜 음료점업,부산광역시 해운대구 센텀중앙로 90,해운대구,129.126489543725,35.175495422474,5,4
32100,파스쿠치부산대병원,커피점/카페,비알콜 음료점업,부산광역시 서구 까치고개로197번길 3,서구,129.01720878728,35.1002040890174,1,-1
32143,역전휴게실쉼터,커피점/카페,비알콜 음료점업,부산광역시 기장군 장안읍 월내길 10,기장군,129.275799896251,35.3261635649865,-1,-1
32154,홍콩반점&빽다방Ⅰ,커피점/카페,비알콜 음료점업,부산광역시 북구 백양대로 1038,북구,128.996134957382,35.1980366921032,-1,-1
32156,스터디카페,커피점/카페,비알콜 음료점업,부산광역시 남구 용호로 163,남구,129.111638254727,35.117547154452,-1,-1
32179,디엔씨카페,커피점/카페,비알콜 음료점업,부산광역시 동래구 미남로 62,동래구,129.070478616203,35.1997459126608,-1,-1
32212,숲색소폰7080라이브카페,커피점/카페,비알콜 음료점업,부산광역시 부산진구 가야공원로 29,부산진구,129.03014003964,35.1507265316893,-1,-1
32218,자연드림카페,커피점/카페,비알콜 음료점업,부산광역시 수영구 남천동로 15,수영구,129.110530104019,35.1425889415425,0,-1
32230,세일기업수안커피컴퍼니,커피점/카페,비알콜 음료점업,부산광역시 동래구 수안로 60,동래구,129.085115631595,35.1996516869897,2,-1
32235,비씨팔백,커피점/카페,비알콜 음료점업,부산광역시 동래구 충렬대로238번길 37,동래구,129.085062289297,35.199769344858,2,-1
32246,카페알트로,커피점/카페,비알콜 음료점업,부산광역시 사하구 사하로 104,사하구,128.993857696997,35.0911763562045,-1,-1
32296,카페인동네,커피점/카페,비알콜 음료점업,부산광역시 수영구 망미번영로70번길 26,수영구,129.111176853793,35.1724008951924,0,-1
32304,카페달링하버,커피점/카페,비알콜 음료점업,부산광역시 중구 충장대로5번길 36,중구,129.037581832848,35.1084054735367,1,1
32313,수수가든,커피점/카페,비알콜 음료점업,부산광역시 부산진구 가야대로 772,부산진구,129.056437700996,35.1568098468641,10,3
32328,파타야,커피점/카페,비알콜 음료점업,부산광역시 남구 양지골로 341,남구,129.086002194117,35.1218087873338,-1,-1
32335,카페051장산점,커피점/카페,비알콜 음료점업,부산광역시 해운대구 양운로 53,해운대구,129.176440471374,35.167917707043,4,-1
32359,영사미,커피점/카페,비알콜 음료점업,부산광역시 수영구 광일로29번가길 22,수영구,129.109424097664,35.1613569569619,0,-1
32449,푸드앤카페,커피점/카페,비알콜 음료점업,부산광역시 동구 고관로 119,동구,129.04684398969,35.1293104167257,1,-1
32450,몽도르,커피점/카페,비알콜 음료점업,부산광역시 강서구 가덕해안로 600,강서구,128.810569230352,35.0427903578693,-1,-1
32550,카페노갈레스,커피점/카페,비알콜 음료점업,부산광역시 기장군 기장읍 내리1길 6,기장군,129.207307911908,35.2080044859605,-1,-1
32582,담원재대공원점,커피점/카페,비알콜 음료점업,부산광역시 부산진구 성지곡로33번길 2,부산진구,129.048036350409,35.1855110038496,-1,-1
32584,컴포즈커피사직점,커피점/카페,비알콜 음료점업,부산광역시 동래구 사직북로28번길 5,동래구,129.060402707439,35.1984464332711,9,-1
32631,스타벅스,커피점/카페,비알콜 음료점업,부산광역시 해운대구 센텀중앙로 145,해운대구,129.123619904461,35.1767749992096,5,-1
32639,더벤티,커피점/카페,비알콜 음료점업,부산광역시 금정구 팔송로 12,금정구,129.091183459871,35.2722932737182,-1,-1
32642,에스엠유통오구피자까페,커피점/카페,비알콜 음료점업,부산광역시 기장군 정관읍 구연로 19,기장군,129.181868953745,35.3220256443565,16,-1
32652,카페인시애틀,커피점/카페,비알콜 음료점업,부산광역시 해운대구 우동2로 51-1,해운대구,129.157275878718,35.1680121760506,12,5
32662,여인다방,커피점/카페,비알콜 음료점업,부산광역시 사상구 사상로 291,사상구,128.982674223899,35.1708704408979,14,-1
32681,커피야,커피점/카페,비알콜 음료점업,부산광역시 영도구 동삼로 61,영도구,129.070299824263,35.0787894566802,-1,-1
32685,카페달콤한가배,커피점/카페,비알콜 음료점업,부산광역시 해운대구 재송2로 17,해운대구,129.130537463438,35.1927191574723,-1,-1
32707,더리터,커피점/카페,비알콜 음료점업,부산광역시 서구 충무대로34번길 47,서구,129.0171472061,35.0766959272167,-1,-1
32728,유림,커피점/카페,비알콜 음료점업,부산광역시 동래구 미남로146번길 16,동래구,129.071313446238,35.2064538439661,-1,-1
32806,홀리하우스,커피점/카페,비알콜 음료점업,부산광역시 북구 금곡대로616번길 37,북구,129.016195961309,35.2622019189243,-1,-1
32832,티엘트래블카페,커피점/카페,비알콜 음료점업,부산광역시 수영구 광안해변로 311,수영구,129.127457642828,35.157350568307,0,-1
32867,다사동,커피점/카페,비알콜 음료점업,부산광역시 수영구 장대골로19번길 20,수영구,129.110878937893,35.1585673542025,0,-1
32868,카페82,커피점/카페,비알콜 음료점업,부산광역시 남구 용소로21번길 41-1,남구,129.103119240451,35.135815079466,0,0
32914,럭키,커피점/카페,비알콜 음료점업,부산광역시 금정구 중앙대로 1672,금정구,129.092161759267,35.2337957267596,2,2
32925,디오티,커피점/카페,비알콜 음료점업,부산광역시 금정구 금샘로 35,금정구,129.076793459368,35.2288947094794,2,-1
32937,카이커피,커피점/카페,비알콜 음료점업,부산광역시 북구 만덕대로 23,북구,129.007618506955,35.2111380386069,3,-1
33040,하삼동커피,커피점/카페,비알콜 음료점업,부산광역시 사하구 승학로 60,사하구,128.974798037191,35.1050775650224,11,-1
33041,카페올리브,커피점/카페,비알콜 음료점업,부산광역시 금정구 체육공원로 17,금정구,129.095118328715,35.246153929411,2,-1
33044,디초콜릿커피앤,커피점/카페,비알콜 음료점업,부산광역시 동래구 중앙대로 1523,동래구,129.08560153654,35.2213075406717,2,-1
33111,공차,커피점/카페,비알콜 음료점업,부산광역시 부산진구 가야대로 772,부산진구,129.056437700996,35.1568098468641,10,3
33127,디아망키즈카페,커피점/카페,비알콜 음료점업,부산광역시 해운대구 세실로 39,해운대구,129.179423159448,35.1684655849967,4,-1
33213,엉클밥스,커피점/카페,비알콜 음료점업,부산광역시 사하구 낙동대로549번길 56,사하구,128.960726888125,35.112716650787,11,-1
